,id_planta,id_pais,id_tipo_planta,nombre,combustible_primario,capacidad_mw,latitud,longitud
0,0,AFG,LC,Kajaki Hydroelectric Power Plant Afghanistan,Hydro,33.0,32.322,65.119
1,1,AFG,LC,Kandahar DOG,Solar,10.0,31.67,65.795
2,2,AFG,LC,Kandahar JOL,Solar,10.0,31.623,65.792
3,3,AFG,LC,Mahipar Hydroelectric Power Plant Afghanistan,Hydro,66.0,34.556,69.4787
4,4,AFG,LC,Naghlu Dam Hydroelectric Power Plant Afghanistan,Hydro,100.0,34.641,69.717
5,5,AFG,LC,Nangarhar (Darunta) Hydroelectric Power Plant Afghanistan,Hydro,11.55,34.4847,70.3633
6,6,AFG,LC,Pul-e-Khumri Hydroelectric Power Plant Afghanistan,Hydro,6.0,35.9416,68.71
7,7,AFG,LC,Sarobi Dam Hydroelectric Power Plant Afghanistan,Hydro,22.0,34.5865,69.7757
8,8,ALB,LC,Bistrica 1,Hydro,27.0,39.9116,20.1047
9,9,ALB,LC,Fierza,Hydro,500.0,42.2514,20.0431
10,10,ALB,LC,Koman,Hydro,600.0,42.1033,19.8224
11,11,ALB,LC,Lanabregas,Hydro,5.0,41.3428,19.8964
12,12,ALB,LC,Shkopet,Hydro,24.0,41.6796,19.8305
13,13,ALB,LC,Ulez,Hydro,25.0,41.6796,19.8936
14,14,ALB,LC,Vau i Dijes,Hydro,250.0,42.0137,19.6359
15,15,DZA,LC,Adrar,Solar,20.0,27.908,-0.317
16,16,DZA,LC,Ain Azel,Solar,20.0,35.88,5.475
17,17,DZA,LC,Ain Sekhouna,Solar,20.0,34.532,0.804
18,18,DZA,LC,Ain el Ibel I,Solar,20.0,34.346,3.164
19,19,DZA,LC,Ain el Ibel II,Solar,53.0,34.342,3.169
20,20,DZA,LC,Ain el Melh,Solar,20.0,34.861,4.204
21,21,DZA,LC,Algerie Sud-Ouest,Solar,43.5,27.908,-0.317
22,22,DZA,LC,Aoulef,Solar,5.0,26.9989,1.3351
23,23,DZA,LC,Bir Rebaa,Solar,10.0,31.285,8.565
24,24,DZA,LC,Chelghoum El Aïd,Solar,15.0,36.225,6.11
25,25,DZA,LC,El Kheneg,Solar,60.0,33.727,2.811
26,26,DZA,LC,HPC Ouargla,Solar,30.0,32.602,5.834
27,27,DZA,LC,Hassi R'mel ISCC,Solar,20.0,33.123,3.356
28,28,DZA,LC,Hauts Plateaux Centre,Solar,106.6,34.342,3.169
29,29,DZA,LC,Hauts Plateaux Est,Solar,73.8,35.68,5.9861
30,30,DZA,LC,Ighil Emda,Hydro,24.0,36.4739,5.2719
31,31,DZA,LC,In Salah,Solar,5.0,27.183,2.504
32,32,DZA,LC,Labiodh Sidi Cheikh,Solar,20.0,32.945,0.555
33,33,DZA,LC,Naâma,Solar,19.9,33.274,-0.372
34,34,DZA,LC,Oued El Kebrit,Solar,15.0,35.919,7.87
35,35,DZA,LC,Oued el Ma,Solar,20.0,35.68,5.9861
36,36,DZA,LC,Ras el Oued,Solar,20.0,36.01,5.035
37,37,DZA,LC,Reggane,Solar,5.0,26.768,0.137
38,38,DZA,LC,Tamanrasset,Solar,13.0,22.849,5.45
39,39,DZA,LC,Timimoun,Solar,9.0,29.22,0.223
40,40,DZA,LC,Tindouf,Solar,9.0,27.752,-8.154
41,41,DZA,LC,Télagh,Solar,12.0,34.692,-0.601
42,42,DZA,LC,Zaouiet Kounta,Solar,6.0,27.241,-0.174
43,43,AGO,LC,Biopio (hydro),Hydro,14.6,-12.4706,13.7319
44,44,AGO,LC,Cambambe,Hydro,180.0,-9.7523,14.4809
45,45,AGO,LC,Capanda,Hydro,520.0,-9.7955,15.4672
46,46,AGO,LC,Matala,Hydro,40.0,-14.7333,15.0333
47,47,AGO,LC,Rio Luachimo,Hydro,16.0,-7.3,20.85
48,48,ATA,LC,Ross Island,Wind,1.0,-77.8428,166.7271
49,49,ARG,LC,AGUA DEL TORO,Hydro,130.0,-34.5792,-68.9892
50,50,ARG,LC,ALICURA,Hydro,1050.0,-40.58,-70.7489
51,51,ARG,LC,ALVAREZ CONDARCO,Hydro,50.7,-33.0452,-69.0516
52,52,ARG,LC,ARROYITO,Hydro,128.0,-39.1009,-68.5982
53,53,ARG,LC,ATUCHA I,Nuclear,370.0,-33.967,-59.2059
54,54,ARG,LC,ATUCHA II,Nuclear,745.0,-33.9674,-59.2045
55,55,ARG,LC,BENJAMIN REOLIN,Hydro,38.4,-32.1883,-64.3233
56,56,ARG,LC,CABRA CORRAL,Hydro,102.0,-25.2712,-65.3298
57,57,ARG,LC,CACHEUTA (NUEVA),Hydro,120.0,-33.0291,-69.1109
58,58,ARG,LC,CASA DE PIEDRA,Hydro,60.0,-38.2143,-67.1908
59,59,ARG,LC,CASSAFFOUSTH,Hydro,17.28,-31.3992,-64.2006
60,60,ARG,LC,CH LOS CARACOLES,Hydro,121.4,-31.5192,-68.9814
61,61,ARG,LC,CHIMBERA 1,Solar,2.0,-31.9881,-68.5402
62,62,ARG,LC,CIPOLLETTI,Hydro,5.78,-38.9121,-67.9427
63,63,ARG,LC,COMODORO RIVADAVIA - ANTONIO MORAN,Wind,16.56,-45.8467,-67.4964
64,64,ARG,LC,CUESTA DEL VIENTO,Hydro,10.55,-30.1833,-69.0667
65,65,ARG,LC,Cafayate,Solar,80.0,-26.04,-65.93
66,66,ARG,LC,Caldenes del Oeste,Solar,30.0,-33.61,-65.445
67,67,ARG,LC,Cauchari,Solar,300.0,-23.8,-66.8
68,68,ARG,LC,EL CADILLAL,Hydro,14.0,-26.6156,-65.1929
69,69,ARG,LC,EL CARRIZAL,Hydro,17.0,-33.2993,-68.7199
70,70,ARG,LC,EL CHOCON,Hydro,1200.0,-39.2577,-68.7483
71,71,ARG,LC,EL TIGRE,Hydro,14.4,-34.61,-68.6136
72,72,ARG,LC,EL TUNAL,Hydro,11.0,-25.2323,-64.4762
73,73,ARG,LC,EMBALSE,Nuclear,648.0,-32.2316,-64.4422
74,74,ARG,LC,ESCABA,Hydro,24.0,-27.6589,-65.7633
75,75,ARG,LC,FITZ SIMON,Hydro,10.8,-32.1784,-64.4207
76,76,ARG,LC,FLORENTINO AMEGHINO,Hydro,60.0,-43.6996,-66.4815
77,77,ARG,LC,FUTALEUFU,Hydro,472.0,-43.1288,-71.63
78,78,ARG,LC,GENERAL ACHA,Wind,1.8,-37.4309,-64.716
79,79,ARG,LC,GENERAL SAN MARTIN,Hydro,6.0,-33.0449,-68.9219
80,80,ARG,LC,GUILLERMO CESPEDES,Hydro,5.2,-39.56,-65.6817
81,81,ARG,LC,H. PICHI PICUN LEUFU,Hydro,285.0,-40.012,-69.9918
82,82,ARG,LC,Iglesia-Guañizuil,Solar,80.0,-30.34,-69.27
83,83,ARG,LC,JULIAN  ROMERO,Hydro,6.2,-38.8367,-68.038
84,84,ARG,LC,LA VIÑA,Hydro,16.0,-31.8708,-65.0349
85,85,ARG,LC,LAS MADERAS,Hydro,30.0,-24.4438,-65.2203
86,86,ARG,LC,LOS CORONELES (EX 25  DE MAYO),Hydro,6.6000000000000005,-34.6,-68.5285
87,87,ARG,LC,LOS MOLINOS I,Hydro,59.04,-31.838,-64.4452
88,88,ARG,LC,LOS MOLINOS II,Hydro,4.5,-31.838,-64.4452
89,89,ARG,LC,LOS QUIROGA,Hydro,2.5,-27.6509,-64.3618
90,90,ARG,LC,LOS REYUNOS,Hydro,224.0,-34.6028,-68.6383
91,91,ARG,LC,MAYOR BURATOVICH,Wind,2.02,-39.2291,-62.6497
92,92,ARG,LC,NIHUIL I,Hydro,74.24,-34.9907,-68.6237
93,93,ARG,LC,NIHUIL II,Hydro,133.12,-34.9039,-68.6177
94,94,ARG,LC,NIHUIL III,Hydro,52.0,-34.8821,-68.576
95,95,ARG,LC,NIHUIL IV,Hydro,22.4,-34.833,-68.5168
96,96,ARG,LC,PARQUE EOLICO ARAUCO SAPEM I,Wind,25.2,-28.6684,-66.7524
97,97,ARG,LC,PARQUE EOLICO ARAUCO SAPEM II,Wind,25.2,-28.6684,-66.7524
98,98,ARG,LC,PARQUE EOLICO DIADEMA,Wind,6.3,-45.7458,-67.6953
99,99,ARG,LC,PARQUE EOLICO EL TORDILLO,Wind,3.0,-45.8507,-67.9081
100,100,ARG,LC,PARQUE EOLICO LOMA BLANCA IV (ENARSA),Wind,50.0,-43.0907,-65.2298
101,101,ARG,LC,PARQUE EOLICO RAWSON I (ENARSA),Wind,48.6,-43.3522,-65.1734
102,102,ARG,LC,PARQUE EOLICO RAWSON II (ENARSA),Wind,28.8,-43.3522,-65.1734
103,103,ARG,LC,PICO TRUNCADO - JORGE ROMANUTTI,Wind,2.4,-46.8065,-67.9808
104,104,ARG,LC,PIEDRA DEL AGUILA (CPSA),Hydro,1400.0,-31.6651,-63.8314
105,105,ARG,LC,PIEDRAS MORAS,Hydro,6.3,-32.1675,-64.2438
106,106,ARG,LC,PLANICIE BANDERITA,Hydro,472.0,-28.5339,-65.7997
107,107,ARG,LC,PLANTA PILOTO FOTOVOLTAICA SAN JUAN 1,Solar,1.2,-31.3891,-68.6752
108,108,ARG,LC,PUEBLO VIEJO,Hydro,19.2,-27.1149,-65.7523
109,109,ARG,LC,PUNTA ALTA - CENTENARIO,Wind,1.8,-38.7833,-61.8984
110,110,ARG,LC,QUEBRADA DE ULLUM,Hydro,45.0,-31.2567,-61.5203
111,111,ARG,LC,RIO CORRALITO,Hydro,13.2,-24.983,-65.686
112,112,ARG,LC,RIO GRANDE,Hydro,750.0,-53.7862,-67.7222
113,113,ARG,LC,RIO HONDO,Hydro,19.0,-27.5225,-64.8861
114,114,ARG,LC,SALTO ANDERSEN,Hydro,7.9,-38.8244,-64.8296
115,115,ARG,LC,SALTO GRANDE (MITAD ARGENTINA),Hydro,945.0,-31.3891,-68.6752
116,116,ARG,LC,SAN ROQUE,Hydro,26.0,-31.3533,-64.3938
117,117,ARG,LC,Saujil,Solar,22.5,-28.165,-66.225
118,118,ARG,LC,ULLUM,Hydro,42.0,-31.4557,-68.7556
119,119,ARG,LC,URUGUA-I,Hydro,120.0,-25.8766,-54.5687
120,120,ARG,LC,YACYRETA,Hydro,1550.0,-27.4827,-56.7397
121,121,ARM,LC,Armenian-2,Nuclear,375.0,40.1805,44.1498
122,122,ARM,LC,Sevan-Hrazdan Cascade,Hydro,561.0,40.5078,44.7606
123,123,ARM,LC,Shamb,Hydro,170.0,39.4743,46.1306
124,124,ARM,LC,Spandaryan,Hydro,76.0,39.6494,45.85
125,125,ARM,LC,Tatev,Hydro,158.0,39.3956,46.2578
126,126,AUS,LC,Adelaide Showgrounds,Solar,1.0,-34.9453,138.5882
127,127,AUS,LC,Albany Wind Farm,Wind,21.6,-35.0641,117.7977
128,128,AUS,LC,Ararat Wind Farm,Wind,240.0,-37.2385,143.0794
129,129,AUS,LC,Banimboola,Hydro,12.85,-36.5344,147.4594
130,130,AUS,LC,Bannerton Solar Farm,Solar,88.0,-34.6899,142.7452
131,131,AUS,LC,Barcaldine KDB,Solar,20.0,-23.549,145.318
132,132,AUS,LC,Barcaldine YD,Solar,10.9,-23.5388,145.2732
133,133,AUS,LC,Barron Gorge,Hydro,60.0,-16.8502,145.6465
134,134,AUS,LC,Bastyan,Hydro,79.9,-41.736,145.5321
135,135,AUS,LC,Belconnen,Waste,1.0,-35.2142,148.9872
136,136,AUS,LC,Bendeela (Shoalhaven Scheme),Hydro,240.0,-34.7337,150.4669
137,137,AUS,LC,Berwick,Waste,7.2,-38.1197,145.2665
138,138,AUS,LC,Beryl AU,Solar,87.0,-32.353,149.468
139,139,AUS,LC,Blayney Wind Farm,Wind,9.9,-33.6219,149.1982
140,140,AUS,LC,Blowering,Hydro,70.0,-35.3986,148.2463
141,141,AUS,LC,Bluff Point (Woolnorth) Wind Farm,Wind,65.0,-40.7207,144.6869
142,142,AUS,LC,Boco Rock,Wind,113.0,-36.5763,149.1267
143,143,AUS,LC,Bodangora Wind Farm,Wind,113.0,-32.4146,149.0998
144,144,AUS,LC,Bogong (Mount Beauty Hydro Scheme),Hydro,300.0,-36.8055,147.228
145,145,AUS,LC,Brisbane BNE,Solar,6.0,-27.404,153.11
146,146,AUS,LC,Broadmeadows,Waste,12.2,-37.6878,144.9663
147,147,AUS,LC,Broadwater,Biomass,38.0,-29.0118,153.4335
148,148,AUS,LC,Broken Hill Solar Plant,Solar,53.0,-31.9867,141.3915
149,149,AUS,LC,Brooklyn,Waste,2.83,-37.818,144.8319
150,150,AUS,LC,Brown Mountain,Hydro,4.95,-36.5951,149.474
151,151,AUS,LC,Browns Plains,Waste,2.2,-27.6721,153.0663
152,152,AUS,LC,Bungala I,Solar,110.0,-32.427,137.838
153,153,AUS,LC,Bungala II,Solar,110.0,-32.408,137.841
154,154,AUS,LC,Burrendong,Hydro,19.0,-32.6646,149.108
155,155,AUS,LC,Burrinjuck Power Station,Hydro,27.0,-35.0025,148.5834
156,156,AUS,LC,Butlers Gorge,Hydro,14.4,-42.2669,146.2618
157,157,AUS,LC,CSIRO Energy Centre,Solar,1.5,-32.8835,151.7275
158,158,AUS,LC,Canning Vale,Waste,4.0,-32.0739,115.8914
159,159,AUS,LC,Canunda Wind Farm,Wind,46.0,-37.7603,140.4033
160,160,AUS,LC,Cape Bridgewater Wind Farm,Wind,58.0,-38.3577,141.385
161,161,AUS,LC,Cape Nelson North Wind Farm,Wind,22.0,-38.3676,141.543
162,162,AUS,LC,Cape Nelson South Wind Farm,Wind,44.0,-38.412,141.543
163,163,AUS,LC,Cape Sir William Grant Wind Farm,Wind,54.0,-38.3976,141.6209
164,164,AUS,LC,Capital Hill Wind Farm,Wind,140.0,-35.166,149.5186
165,165,AUS,LC,Catagunya,Hydro,48.0,-42.4524,146.5977
166,166,AUS,LC,Cathedral Rocks Wind Farm,Wind,66.0,-34.8509,135.5852
167,167,AUS,LC,Cethana,Hydro,85.0,-41.4787,146.1349
168,168,AUS,LC,Challicum Hills Wind Farm,Wind,52.5,-37.3898,143.114
169,169,AUS,LC,Childers,Solar,75.0,-25.28,152.38
170,170,AUS,LC,Clare Solar Farm,Solar,130.0,-19.8398,147.2105
171,171,AUS,LC,Claytons,Waste,11.0,-37.9502,145.1187
172,172,AUS,LC,Clements Gap Wind Farm,Wind,57.0,-33.5086,138.1192
173,173,AUS,LC,Clermont Solar Farm,Solar,100.0,-22.8446,147.5855
174,174,AUS,LC,Clover,Hydro,30.0,-36.7853,147.2205
175,175,AUS,LC,Cluny,Hydro,17.0,-42.5064,146.6812
176,176,AUS,LC,Codrington Wind Farm,Wind,18.2,-38.2835,141.9547
177,177,AUS,LC,Collgar Wind Farm,Wind,206.0,-31.5432,118.4566
178,178,AUS,LC,Collinsville Solar Farm,Solar,42.0,-20.5411,147.8074
179,179,AUS,LC,Condong Sugar Mill,Biomass,30.0,-28.3138,153.4341
180,180,AUS,LC,Copeton,Hydro,24.0,-29.9102,150.9235
181,181,AUS,LC,Corio,Waste,1.0,-38.0587,144.4056
182,182,AUS,LC,Crookwell Wind Farm,Wind,4.8,-34.5165,149.5425
183,183,AUS,LC,Crowlands Wind Farm,Wind,80.0,-37.1216,143.1537
184,184,AUS,LC,Cullerin Range Wind Farm,Wind,30.0,-34.805,149.4001
185,185,AUS,LC,Darling Downs Solar Farm,Solar,110.0,-27.1169,150.8942
186,186,AUS,LC,Dartmouth (Mount Beauty Hydro Scheme),Hydro,150.0,-36.5564,147.5206
187,187,AUS,LC,Darwin DRW,Solar,4.0,-12.4157,130.8908
188,188,AUS,LC,Daydream Solar Farm ,Solar,50.0,-20.4947,147.7707
189,189,AUS,LC,DeGrussa,Solar,10.6,-25.55,119.317
190,190,AUS,LC,Devils Gate,Hydro,60.0,-41.3505,146.2632
191,191,AUS,LC,Dubbo,Solar,30.0,-32.273,148.658
192,192,AUS,LC,EarthPower Biomass Plant,Waste,3.9,-33.8204,151.042
193,193,AUS,LC,Eastern Creek,Waste,5.4,-33.8142,150.8537
194,194,AUS,LC,Eastern Creek 2,Waste,8.984,-33.8125,150.8617
195,195,AUS,LC,Eildon,Hydro,120.0,-37.222,145.9215
196,196,AUS,LC,Eildon Small Hydro,Hydro,5.0,-37.2431,145.8974
197,197,AUS,LC,Emerald Solar Farm,Solar,68.0,-23.5084,148.1347
198,198,AUS,LC,Emu Downs,Solar,20.0,-30.489,115.416
199,199,AUS,LC,Emu Downs Wind Farm,Wind,79.2,-30.4882,115.3768
200,200,AUS,LC,Esperance Wind Farm Nine Mile Beach,Wind,3.6,-33.8927,121.7778
201,201,AUS,LC,Esperance Wind Farm Ten Mile Lagoon,Wind,2.03,-33.8802,121.769
202,202,AUS,LC,Fisher,Hydro,43.2,-41.6732,146.2687
203,203,AUS,LC,Gannawarra Solar Farm,Solar,60.0,-35.6762,143.4553
204,204,AUS,LC,Glenbawn,Hydro,5.8,-32.1097,150.9982
205,205,AUS,LC,Glenorchy,Waste,1.6,-42.8415,147.255
206,206,AUS,LC,Goondiwindi,Solar,4.5,-28.325,150.375
207,207,AUS,LC,Gordon,Hydro,432.0,-42.7405,145.9828
208,208,AUS,LC,Gosnells,Waste,1.1,-32.0228,116.0129
209,209,AUS,LC,Grange Avenue,Waste,2.0,-33.7029,150.8312
210,210,AUS,LC,Grasmere Wind Farm (Albany Stage II),Wind,13.8,-35.0507,117.7638
211,211,AUS,LC,Greenough River Solar Farm,Solar,10.0,-28.9043,115.1119
212,212,AUS,LC,Griffith Solar Farm,Solar,36.0,-34.3155,146.1094
213,213,AUS,LC,Gullen,Solar,10.0,-34.61,149.476
214,214,AUS,LC,Gullen Range Wind Farm,Wind,165.5,-34.6149,149.4597
215,215,AUS,LC,Gunning,Wind,47.0,-34.6977,149.3861
216,216,AUS,LC,Guthega,Hydro,80.0,-36.3501,148.4135
217,217,AUS,LC,Hallam Road,Waste,8.984,-38.0535,145.2699
218,218,AUS,LC,Hallet 5 - The Bluff,Wind,52.5,-33.3855,138.7928
219,219,AUS,LC,Hallett 1 Brown Hill Wind Farm,Wind,94.5,-33.3397,138.7323
220,220,AUS,LC,Hallett 2 Hallet Hill Wind Farm,Wind,71.4,-33.5226,138.8552
221,221,AUS,LC,Hamilton Solar Farm,Solar,69.0,-20.5048,147.7671
222,222,AUS,LC,Haughton River Solar Farm,Solar,500.0,-19.733,147.0483
223,223,AUS,LC,Hayman Solar Farm,Solar,180.0,-20.4877,147.7449
224,224,AUS,LC,Henderson,Waste,3.2,-32.165,115.8008
225,225,AUS,LC,Highbury,Waste,2.0,-34.849,138.7203
226,226,AUS,LC,Hobart,Waste,1.0,-42.8883,147.2888
227,227,AUS,LC,Hopetoun Wind Turbines,Wind,1.2,-33.9078,120.1297
228,228,AUS,LC,Hughendon,Solar,20.0,-20.875,144.17
229,229,AUS,LC,Hume,Hydro,70.0,-36.1066,147.0326
230,230,AUS,LC,Inkerman Sugar Mill,Biomass,10.5,-19.6422,147.4016
231,231,AUS,LC,Invicta Sugar Mill,Biomass,150.0,-19.5167,147.1065
232,232,AUS,LC,Isis Central Sugar Mill,Biomass,25.0,-25.194,152.2086
233,233,AUS,LC,Jacks Gully,Waste,2.3,-34.0734,150.7427
234,234,AUS,LC,Jindabyne Dam Mini Hydro,Hydro,1.1,-36.4351,148.6333
235,235,AUS,LC,John Butters,Hydro,144.0,-42.1548,145.5345
236,236,AUS,LC,Jounama,Hydro,14.0,-35.562,148.3055
237,237,AUS,LC,Kalamia Sugar Mill,Biomass,9.0,-19.5223,147.4152
238,238,AUS,LC,Kalbarri Wind Farm,Wind,1.7,-27.8995,114.1946
239,239,AUS,LC,Kangaroo Valley (Shoalhaven Scheme),Hydro,160.0,-34.723,150.4795
240,240,AUS,LC,Karadoc Solar Farm,Solar,112.0,-34.4154,142.2521
241,241,AUS,LC,Kareeya,Hydro,88.0,-17.767,145.5779
242,242,AUS,LC,Kiata Wind Farm,Wind,31.05,-36.3966,141.7474
243,243,AUS,LC,Kidston I,Solar,50.0,-18.89,144.14
244,244,AUS,LC,Koombooloomba,Hydro,7.3,-17.8313,145.6034
245,245,AUS,LC,Lake Bonney Stage 1 Wind Farm,Wind,80.5,-37.7815,140.4058
246,246,AUS,LC,Lake Bonney Stage 2 Wind Farm,Wind,159.0,-37.8149,140.4195
247,247,AUS,LC,Lake Bonney Stage 3 Wind Farm,Wind,39.0,-37.7505,140.393
248,248,AUS,LC,Lake Cargelligo CSP,Solar,3.0,-33.311,146.4092
249,249,AUS,LC,Lake Echo,Hydro,32.4,-42.2537,146.6207
250,250,AUS,LC,Lake Glenmaggie,Hydro,4.0,-37.9047,146.8011
251,251,AUS,LC,Lake Keepit,Hydro,6.5,-30.8792,150.4914
252,252,AUS,LC,Lake William Hovell,Hydro,2.0,-36.9129,146.3921
253,253,AUS,LC,Lakeland QLD,Solar,10.9,-15.869,144.862
254,254,AUS,LC,Landfill Management Services Shoal Bay,Waste,1.1,-12.3892,130.9254
255,255,AUS,LC,Lemonthyme,Hydro,81.6,-41.6038,146.139
256,256,AUS,LC,Leonards Hill,Wind,4.1,-37.4271,144.1222
257,257,AUS,LC,Liapootah,Hydro,87.3,-42.3763,146.5099
258,258,AUS,LC,Liddell Solar Thermal,Solar,9.3,-32.3761,150.9797
259,259,AUS,LC,Lilyvale Solar Farm,Solar,100.0,-23.0875,148.439
260,260,AUS,LC,Lincoln Gap,Wind,10.0,-32.5645,137.5572
261,261,AUS,LC,Lower Lake Margaret,Hydro,3.2,-42.0147,145.5261
262,262,AUS,LC,Lower Rubicon,Hydro,13.55,-37.3027,145.8458
263,263,AUS,LC,Lucas Heights I,Waste,5.39,-34.0293,151.0021
264,264,AUS,LC,Lucas Heights II,Waste,16.0,-34.0481,150.9739
265,265,AUS,LC,Macarthur Wind Farm,Wind,420.0,-38.0648,142.1844
266,266,AUS,LC,Mackintosh,Hydro,79.9,-41.6997,145.6461
267,267,AUS,LC,Macknade Sugar Mill,Biomass,8.0,-18.589,146.258
268,268,AUS,LC,Mandurah,Waste,1.3,-32.5079,115.759
269,269,AUS,LC,Manildra Solar Farm,Solar,46.0,-33.1733,148.718
270,270,AUS,LC,Maryborough,Biomass,7.5,-25.5476,152.7171
271,271,AUS,LC,Maryvale Mill,Biomass,54.5,-38.1809,146.4479
272,272,AUS,LC,McKay Creek (Mount Beauty Hydro Scheme),Hydro,150.0,-36.8584,147.2345
273,273,AUS,LC,Meadowbank,Hydro,40.0,-42.6112,146.8457
274,274,AUS,LC,Moorabool North Wind Farm,Wind,131.0,-37.655,144.1913
275,275,AUS,LC,Moorabool South Wind Farm,Wind,131.0,-37.7402,144.1622
276,276,AUS,LC,Moree,Solar,60.0,-29.5722,149.8669
277,277,AUS,LC,Mornington,Waste,1.0,-38.3916,144.8553
278,278,AUS,LC,Mortons Lane Wind Farm,Wind,20.0,-37.8413,142.4653
279,279,AUS,LC,Mount Millar Wind Farm,Wind,70.0,-33.6255,136.7039
280,280,AUS,LC,Mt Gambier,Biomass,10.0,-37.8388,140.8057
281,281,AUS,LC,Mt Gellibrand Wind Farm,Wind,189.0,-38.2587,143.8019
282,282,AUS,LC,Mt Mercer Wind Farm,Wind,131.0,-37.8317,143.8892
283,283,AUS,LC,Mugga Lane,Waste,3.5,-35.3953,149.1458
284,284,AUS,LC,Mugga Lane Solar Park,Solar,13.0,-35.3989,149.146
285,285,AUS,LC,Mulgrave,Biomass,13.0,-17.0932,145.7887
286,286,AUS,LC,Mumbida Wind Farm,Wind,55.0,-28.9918,114.9599
287,287,AUS,LC,Murra Warra Wind Farm,Wind,429.0,-36.4333,142.3182
288,288,AUS,LC,Murray 1,Hydro,950.0,-36.2467,148.1901
289,289,AUS,LC,Murray 2,Hydro,552.0,-36.2423,148.1362
290,290,AUS,LC,Musselroe,Wind,168.0,-40.7798,148.0097
291,291,AUS,LC,Narrogin Bioenergy Plant,Biomass,1.0,-32.9521,117.1916
292,292,AUS,LC,Narromine,Solar,15.0,-32.224,148.256
293,293,AUS,LC,Nieterana,Hydro,2.2,-42.2686,146.2629
294,294,AUS,LC,Noranda,Waste,1.1,-31.8654,115.8773
295,295,AUS,LC,Normanton,Solar,4.5,-17.681,141.05
296,296,AUS,LC,North Brown Hill  Wind Farm,Wind,132.3,-33.3093,138.7296
297,297,AUS,LC,Northam,Solar,10.0,-31.652,116.711
298,298,AUS,LC,Numurkah Solar Farm,Solar,100.0,-36.1592,145.4746
299,299,AUS,LC,Nymboida,Hydro,33.6,-29.9257,152.7417
300,300,AUS,LC,Nyngan Solar Plant,Solar,102.0,-31.5527,147.0854
301,301,AUS,LC,Oakey 1,Solar,25.0,-27.406,151.647
302,302,AUS,LC,Oakey 2,Solar,55.0,-27.412,151.655
303,303,AUS,LC,Oakland Hills Wind Farm,Wind,67.0,-37.6871,142.5467
304,304,AUS,LC,Oaky,Hydro,4.8,-30.5751,152.069
305,305,AUS,LC,Ord River,Hydro,30.0,-16.1201,128.7383
306,306,AUS,LC,Paloona,Hydro,28.0,-41.2826,146.249
307,307,AUS,LC,Parkes Solar Farm,Solar,66.0,-33.1027,148.075
308,308,AUS,LC,Pedler Creek,Waste,3.0,-35.2023,138.5021
309,309,AUS,LC,Perth Zoo,Solar,2.37,-31.9767,115.8548
310,310,AUS,LC,Peterborough SA,Solar,4.9,-32.945,138.905
311,311,AUS,LC,Pindari,Hydro,6.7,-29.3886,151.2442
312,312,AUS,LC,Pioneer Sugar Mill,Biomass,67.8,-19.5575,147.3308
313,313,AUS,LC,Plane Creek Sugar Mill,Biomass,14.0,-21.4282,149.2159
314,314,AUS,LC,Poatina,Hydro,100.0,-41.8115,146.9192
315,315,AUS,LC,Proserpine Sugar Mill,Biomass,17.0,-20.3985,148.5797
316,316,AUS,LC,Racecourse Mill,Biomass,3.5,-21.1635,149.1344
317,317,AUS,LC,Red Hill,Waste,3.65,-31.8317,116.0992
318,318,AUS,LC,Reece,Hydro,238.0,-41.7238,145.1359
319,319,AUS,LC,Remount,Waste,2.2,-41.395,147.1554
320,320,AUS,LC,Repulse,Hydro,28.0,-42.5077,146.647
321,321,AUS,LC,Rochedale,Waste,4.0,-27.5591,153.1236
322,322,AUS,LC,Rockingham,Waste,2.1,-32.2863,115.8154
323,323,AUS,LC,Rocky Point Sugar Sugar Mill,Biomass,30.0,-27.7334,153.3276
324,324,AUS,LC,Roghan Road,Waste,2.0,-27.3388,153.0344
325,325,AUS,LC,Rollingstone QLD,Solar,125.0,-19.03,146.394
326,326,AUS,LC,Ross River,Solar,148.0,-19.424,146.715
327,327,AUS,LC,Rowallan,Hydro,10.5,-41.7295,146.2176
328,328,AUS,LC,Royalla Solar Farm,Solar,20.0,-35.4897,149.1435
329,329,AUS,LC,Rubicon,Hydro,13.55,-37.3272,145.8605
330,330,AUS,LC,Rugby Run Solar Farm,Solar,65.0,-22.1405,147.9188
331,331,AUS,LC,Sapphire Wind Farm,Wind,270.0,-29.6997,151.4119
332,332,AUS,LC,Shenton Park WMRC Project,Waste,1.0,-31.9577,115.7924
333,333,AUS,LC,Shepparton Biogas Generation Plant,Waste,1.1,-36.3218,145.379
334,334,AUS,LC,Snowtown North,Wind,148.0,-33.714,138.1402
335,335,AUS,LC,Snowtown South,Wind,126.0,-33.8302,138.1184
336,336,AUS,LC,South Cardup (Shale Road Landfill),Waste,3.3,-32.2664,116.0193
337,337,AUS,LC,South Johnstone,Biomass,20.0,-17.6057,145.991
338,338,AUS,LC,Springvale,Waste,4.2,-37.9733,145.1396
339,339,AUS,LC,Stapylton Green Energy,Biomass,4.8,-27.7334,153.2463
340,340,AUS,LC,Starfish Hill Wind Farm,Wind,34.5,-35.5678,138.1432
341,341,AUS,LC,Studland Bay (Woolnorth) Wind Farm,Wind,75.0,-40.7788,144.7362
342,342,AUS,LC,Summerhill,Solar,5.0,-32.891,151.65
343,343,AUS,LC,Summerhill,Waste,2.2,-32.8885,151.643
344,344,AUS,LC,Sun Metals Solar Farm,Solar,124.0,-19.3355,146.8885
345,345,AUS,LC,Suncoast Gold Macadamia,Biomass,1.5,-26.2261,152.6981
346,346,AUS,LC,Sunraysia,Solar,200.0,-34.804,143.491
347,347,AUS,LC,Susan River,Solar,98.0,-25.32,152.405
348,348,AUS,LC,Swan Hill,Solar,19.0,-35.342,143.518
349,349,AUS,LC,Tableland,Biomass,7.0,-17.1193,145.345
350,350,AUS,LC,Tailem Bend Solar Farm,Solar,95.0,-35.2708,139.4924
351,351,AUS,LC,Tamala Park,Waste,4.65,-31.7078,115.7266
352,352,AUS,LC,Taralga Wind Farm,Wind,107.0,-34.4314,149.8652
353,353,AUS,LC,Tarraleah,Hydro,90.0,-42.3012,146.4572
354,354,AUS,LC,Tatura Biogas Generation Plant,Waste,1.1,-36.4793,145.235
355,355,AUS,LC,Tea Tree Gully,Waste,1.0,-34.8303,138.7129
356,356,AUS,LC,Terminal Storage,Hydro,2.5,-34.8393,138.7112
357,357,AUS,LC,The Drop,Hydro,3.0,-35.6043,145.7837
358,358,AUS,LC,Ti Tree Bioenergy,Waste,3.3,-27.6802,152.6593
359,359,AUS,LC,Tods Corner,Hydro,1.7,-41.9707,146.7938
360,360,AUS,LC,Toora Wind Farm,Wind,21.0,-38.6451,146.3441
361,361,AUS,LC,Traralgon Network Support Station,Waste,10.0,-38.1793,146.5654
362,362,AUS,LC,Trevallyn,Hydro,80.0,-41.4226,147.1119
363,363,AUS,LC,Tribute,Hydro,82.8,-41.8129,145.6538
364,364,AUS,LC,Tully Sugar Mill,Biomass,21.4,-17.9373,145.9267
365,365,AUS,LC,Tumut 1 (Upper Tumut),Hydro,616.0,-35.9517,148.3637
366,366,AUS,LC,Tumut 2 (Upper Tumut),Hydro,336.0,-35.8814,148.3672
367,367,AUS,LC,Tumut 3,Hydro,1500.0,-35.6112,148.2917
368,368,AUS,LC,Tungatinah,Hydro,125.0,-42.2967,146.4565
369,369,AUS,LC,University of Queensland (St Lucia Campus) Solar Array,Solar,1.2,-27.495,153.0101
370,370,AUS,LC,Upper Lake Margaret,Hydro,8.4,-42.0046,145.5437
371,371,AUS,LC,Uterne Solar,Solar,1.0,-23.7685,133.8682
372,372,AUS,LC,Valdora,Solar,15.0,-26.56,153.025
373,373,AUS,LC,Victoria Sugar Mill,Biomass,24.0,-18.6508,146.2016
374,374,AUS,LC,Visy Paper Gibson Island,Biomass,2.0,-27.4405,153.1158
375,375,AUS,LC,Visy Pulp and Paper Tumut,Biomass,20.0,-35.2959,148.1371
376,376,AUS,LC,Walkaway Wind Farm,Wind,90.0,-28.9229,114.9282
377,377,AUS,LC,Warragamba,Hydro,50.0,-33.8832,150.5965
378,378,AUS,LC,Waterloo Wind Farm,Wind,111.0,-34.001,138.9109
379,379,AUS,LC,Wattle Point Wind Farm,Wind,90.75,-35.1104,137.7058
380,380,AUS,LC,Waubra Wind Farm,Wind,192.0,-37.3575,143.6037
381,381,AUS,LC,Wayatinah,Hydro,38.3,-42.4272,146.5347
382,382,AUS,LC,Wemen Solar Farm,Solar,110.0,-34.8027,142.5457
383,383,AUS,LC,West Kiewa (Mount Beauty Hydro Scheme),Hydro,62.0,-36.7601,147.186
384,384,AUS,LC,West Nowra (Shoalhaven),Waste,1.0,-34.882,150.5515
385,385,AUS,LC,White Rock,Solar,20.0,-29.765,151.553
386,386,AUS,LC,Whitsunday Solar Farm,Solar,69.0,-20.4949,147.7481
387,387,AUS,LC,Whitwood Road,Waste,1.0,-27.659,152.8237
388,388,AUS,LC,Whyalla SSE,Solar,6.0,-33.007,137.558
389,389,AUS,LC,Williamsdale,Solar,7.0,-35.571,149.128
390,390,AUS,LC,Wilmot,Hydro,81.6,-41.4833,146.1251
391,391,AUS,LC,Wilpena Solar Farm,Solar,145.0,-31.5234,138.6198
392,392,AUS,LC,Windy Hill Wind Farm,Wind,12.0,-17.5922,145.5306
393,393,AUS,LC,Wingfield I,Waste,5.0,-34.8348,138.5572
394,394,AUS,LC,Wingfield II,Waste,5.0,-34.8321,138.5489
395,395,AUS,LC,Wivenhoe,Hydro,4.7,-27.3952,152.6092
396,396,AUS,LC,Wivenhoe Hydroelectric,Hydro,500.0,-27.3722,152.632
397,397,AUS,LC,Wollert,Waste,6.738,-37.583,145.0487
398,398,AUS,LC,Wonthaggi Wind Farm,Wind,12.0,-38.6037,145.5462
399,399,AUS,LC,Woodlawn Bioreactor,Waste,7.0,-35.059,149.5769
400,400,AUS,LC,Woodlawn Wind Farm,Wind,48.0,-35.0861,149.5716
401,401,AUS,LC,Woodman Point,Waste,1.8,-32.1424,115.7713
402,402,AUS,LC,Wyangala A,Hydro,20.0,-33.981,148.9473
403,403,AUS,LC,Wyndham,Waste,1.0,-37.9375,144.5902
404,404,AUS,LC,Yaloak South Wind Farm,Wind,131.0,-37.7281,144.2408
405,405,AUS,LC,Yambuk Wind Farm,Wind,30.0,-38.3079,142.0151
406,406,AUS,LC,Yarrawonga,Hydro,9.0,-36.0094,145.9995
407,407,AUS,LC,Yatpool,Solar,81.0,-34.407,142.179
408,408,AUT,LC,Abwinden-Asten,Hydro,168.0,48.248,14.4305
409,409,AUT,LC,Altenmarkt,Hydro,26.0,46.7667,15.55
410,410,AUT,LC,Arnstein,Hydro,30.0,47.0167,15.1667
411,411,AUT,LC,Aschach,Hydro,287.0,48.3853,14.023
412,412,AUT,LC,Bischofshofen,Hydro,16.0,47.407,13.2205
413,413,AUT,LC,Braunau-Simbach,Hydro,100.0,48.244,13.006
414,414,AUT,LC,Dionysen,Hydro,16.0,47.4167,15.2833
415,415,AUT,LC,Ering-Frauenstein,Hydro,72.0,48.2194,13.16
416,416,AUT,LC,Erzbach,Hydro,1.0,47.6,14.7333
417,417,AUT,LC,Feistritz-Ludmannsdorf,Hydro,88.0,46.5347,14.1712
418,418,AUT,LC,Feldkirchen,Hydro,38.0,46.8638,13.3355
419,419,AUT,LC,Ferlach Maria Rain,Hydro,75.0,46.5462,14.2985
420,420,AUT,LC,Fisching,Hydro,22.0,47.1667,14.7333
421,421,AUT,LC,Freudenau Danube,Hydro,172.0,48.1764,16.4811
422,422,AUT,LC,Friesach,Hydro,12.0,47.1667,15.3333
423,423,AUT,LC,Funsingau,Hydro,25.0,47.2354,12.0583
424,424,AUT,LC,Gabersdorf,Hydro,14.0,46.7772,15.5842
425,425,AUT,LC,Gaming,Hydro,14.0,48.1766,16.4813
426,426,AUT,LC,Gerlos,Hydro,200.0,47.2342,11.8997
427,427,AUT,LC,Gratkorn,Hydro,11.0,47.1333,15.35
428,428,AUT,LC,Greifenstein,Hydro,293.0,48.3553,16.2424
429,429,AUT,LC,Hieflau,Hydro,63.0,47.6,14.7333
430,430,AUT,LC,Hieflau-Erzbach,Hydro,1.0,47.6,14.7333
431,431,AUT,LC,Jochenstein,Hydro,132.0,48.5184,13.7076
432,432,AUT,LC,KW Amlach,Hydro,60.0,46.8142,12.7618
433,433,AUT,LC,KW Imst,Hydro,89.0,47.2122,10.7215
434,434,AUT,LC,KW Jenbach,Hydro,79.0,47.3932,11.7886
435,435,AUT,LC,KW Kaunertal,Hydro,392.0,47.0678,10.6652
436,436,AUT,LC,KW Kühtai,Hydro,289.0,47.2078,11.0057
437,437,AUT,LC,KW Silz,Hydro,500.0,47.2696,10.9678
438,438,AUT,LC,Kaprun Limberg II,Hydro,480.0,47.1985,12.7223
439,439,AUT,LC,Kaprun Oberstufe,Hydro,113.0,47.1968,12.7192
440,440,AUT,LC,Kaprun main stage,Hydro,240.0,47.2591,12.7389
441,441,AUT,LC,Kellerberg,Hydro,25.0,46.67,13.6886
442,442,AUT,LC,Klammsee,Hydro,1.0,47.2591,12.7389
443,443,AUT,LC,Klaus,Hydro,20.0,47.8314,14.1572
444,444,AUT,LC,Kopswerk II,Hydro,525.0,46.975,10.043
445,445,AUT,LC,Kreuzbergmaut,Hydro,18.0,47.4412,13.2108
446,446,AUT,LC,Kreuzeck days storage,Hydro,45.0,46.8727,13.3117
447,447,AUT,LC,Krippau,Hydro,30.0,47.6833,14.7
448,448,AUT,LC,Landl,Hydro,25.0,47.65,14.7167
449,449,AUT,LC,Laufnitzdorf,Hydro,18.0,47.3,15.3167
450,450,AUT,LC,Lebring,Hydro,20.0,46.8522,15.5383
451,451,AUT,LC,Leoben,Hydro,10.0,47.3833,15.1
452,452,AUT,LC,Losenstein,Hydro,39.0,47.9243,14.4367
453,453,AUT,LC,Low Tuxbach - Small power plant Stillupp,Hydro,2.0,47.1485,11.8225
454,454,AUT,LC,Lünerseewerk,Hydro,280.0,47.074,9.874
455,455,AUT,LC,Malta Secondary school,Hydro,120.0,47.0659,13.3539
456,456,AUT,LC,Malta main stage,Hydro,730.0,47.0659,13.3539
457,457,AUT,LC,Mandling,Hydro,6.0,47.4,13.5667
458,458,AUT,LC,Mayrhofen,Hydro,355.0,47.1581,11.8501
459,459,AUT,LC,Melk,Hydro,187.0,48.2232,15.3042
460,460,AUT,LC,Mellach run power plant,Hydro,16.0,46.8833,15.5167
461,461,AUT,LC,Neuötting,Hydro,26.1,40.1247,-8.7751
462,462,AUT,LC,Niklai,Hydro,2.0,46.8167,13.3167
463,463,AUT,LC,Nussdorf near Vienna,Hydro,5.0,47.2167,14.4833
464,464,AUT,LC,Oberaudorf Ebbs,Hydro,60.0,47.6413,12.1989
465,465,AUT,LC,Obervermuntwerk,Hydro,30.0,46.9271,10.0539
466,466,AUT,LC,Obervogau,Hydro,13.0,46.745,15.5847
467,467,AUT,LC,Ottensheim-Wilhering,Hydro,179.0,48.3166,14.1512
468,468,AUT,LC,Passau-Ingling,Hydro,86.0,48.5536,13.4371
469,469,AUT,LC,Paternion,Hydro,24.0,46.7209,13.6453
470,470,AUT,LC,Peggau,Hydro,13.0,47.2,15.35
471,471,AUT,LC,Pernegg,Hydro,22.0,47.3598,15.3424
472,472,AUT,LC,Pichlern,Hydro,2.0,47.65,13.6667
473,473,AUT,LC,Rabenstein,Hydro,14.0,47.35,13.6833
474,474,AUT,LC,Retznei,Hydro,1.0,46.7333,15.5667
475,475,AUT,LC,Rodundwerk I,Hydro,198.0,47.085,9.8813
476,476,AUT,LC,Rodundwerk II,Hydro,295.0,47.0847,9.8744
477,477,AUT,LC,Rosegg-St. James,Hydro,80.0,46.5696,14.0268
478,478,AUT,LC,Rosenau,Hydro,34.0,48.489,14.6288
479,479,AUT,LC,Schonau,Hydro,30.0,48.3946,14.7302
480,480,AUT,LC,Schwabeck,Hydro,79.0,46.658,14.8726
481,481,AUT,LC,Schwarzach,Hydro,120.0,47.3152,13.1389
482,482,AUT,LC,St. Georgen,Hydro,6.0,47.5333,14.3667
483,483,AUT,LC,St. Johann,Hydro,16.0,47.3386,13.1974
484,484,AUT,LC,St. Martin,Hydro,10.0,47.4467,15.2849
485,485,AUT,LC,St. Pantaleon,Hydro,52.0,48.0076,12.8942
486,486,AUT,LC,St. Veit,Hydro,16.0,47.3214,13.1744
487,487,AUT,LC,Staning,Hydro,43.0,48.1007,14.4568
488,488,AUT,LC,Steinfeld,Hydro,1.0,46.7656,13.2717
489,489,AUT,LC,Ternberg,Hydro,40.0,47.9333,14.35
490,490,AUT,LC,Triebenbach,Hydro,10.0,47.5,14.4667
491,491,AUT,LC,Tuxbach,Hydro,1.0,47.1485,11.8225
492,492,AUT,LC,Urreiting,Hydro,16.0,47.3749,13.2101
493,493,AUT,LC,Vermuntwerk,Hydro,157.0,46.9684,10.0599
494,494,AUT,LC,Vienna-Freudenau,Hydro,172.0,48.1766,16.4814
495,495,AUT,LC,Villach,Hydro,25.0,46.6329,13.8294
496,496,AUT,LC,Walgauwerk,Hydro,86.0,47.192,9.6815
497,497,AUT,LC,Wallnerau Salzach stage,Hydro,13.0,47.316,13.141
498,498,AUT,LC,Wallnerau underwater stage,Hydro,5.0,47.3833,12.6
499,499,AUT,LC,Wallsee-Mitterkirchen,Hydro,210.0,48.1666,14.6953
500,500,AUT,LC,Weissenegg,Hydro,1.0,46.8167,15.8667
501,501,AUT,LC,Werfen-Pfarrwerfen,Hydro,16.0,47.4698,13.1945
502,502,AUT,LC,Weyer,Hydro,37.0,48.1465,14.1176
503,503,AUT,LC,Wind Park Bruck an der Leitha,Wind,9.0,48.0338,16.7264
504,504,AUT,LC,Wind Park Hollern II,Wind,37.0,48.09,16.844
505,505,AUT,LC,Wind Park Petronell-Carnuntum II,Wind,21.0,48.09,16.844
506,506,AUT,LC,Windpark Bruck-Göttlesbrunn,Wind,21.0,48.095,16.89
507,507,AUT,LC,Ybbs-Persenbeug,Hydro,236.0,48.1892,15.0682
508,508,AZE,LC,Gusar,Hydro,1.0,41.3979,48.3308
509,509,AZE,LC,Mingechevir,Hydro,402.0,40.79,47.0287
510,510,AZE,LC,Shamkir,Hydro,405.0,40.9487,46.168
511,511,AZE,LC,Varvara,Hydro,16.0,40.6837,47.0926
512,512,AZE,LC,Yenikend,Hydro,150.0,40.9193,46.2829
513,513,BHR,LC,Awali,Solar,5.0,26.1,50.58
514,514,BGD,LC,Gopalganj,Solar,5.0,26.585,84.145
515,515,BGD,LC,Kaptai Hydro:Unit-1 2 3 4 5,Hydro,230.0,22.495,92.216
516,516,BGD,LC,Teknaf,Solar,28.0,20.982,92.256
517,517,BLR,LC,Blizhnyaya Rechitsa,Solar,55.0,53.64,31.55
518,518,BLR,LC,Blizhnyaya Rechitsa 2,Solar,109.0,53.625,31.6
519,519,BLR,LC,Bragin EP,Solar,4.1,51.784,30.2559
520,520,BLR,LC,Brahin,Solar,18.5,51.797,30.209
521,521,BLR,LC,Chechevicy,Solar,11.3,52.92,30.85
522,522,BLR,LC,Elsk,Solar,16.3,51.77,29.155
523,523,BLR,LC,Smorgon,Solar,18.7,54.41,26.48
524,524,BEL,LC,AWIRS 4,Biomass,95.0,50.5851,5.418
525,525,BEL,LC,Aspiravi Wuustwezel,Wind,22.1,51.2488,3.2166
526,526,BEL,LC,BUTGENBACH,Hydro,1.8,50.4359,6.2106
527,527,BEL,LC,Belwind Phase 1,Wind,171.0,51.66,2.8
528,528,BEL,LC,Beveren 2 Indaver,Waste,20.0,51.2119,4.2563
529,529,BEL,LC,COO,Hydro,1164.0,50.3849,5.8618
530,530,BEL,LC,DOEL 4,Nuclear,2910.0,51.3254,4.2597
531,531,BEL,LC,Electrawinds biomassa Oostende,Waste,17.9,51.2234,2.9119
532,532,BEL,LC,Froidchapelle Wind,Wind,25.0,50.2233,4.32
533,533,BEL,LC,HEID-DE-GOREUX 1,Hydro,8.0,50.426,5.7328
534,534,BEL,LC,HERDERSBRUG WIND,Wind,3.0,51.2622,3.2132
535,535,BEL,LC,HU AMPSIN-NEUVILLE,Hydro,9.9,50.5335,5.2962
536,536,BEL,LC,HU ANDENNE,Hydro,9.0,50.4928,5.07
537,537,BEL,LC,HU GRAND-MALADES,Hydro,5.0,50.4665,4.8992
538,538,BEL,LC,HU IVOZ-RAMET,Hydro,10.0,50.5922,5.4613
539,539,BEL,LC,HU LIXHE,Hydro,20.0,50.7517,5.6863
540,540,BEL,LC,HU MONSIN,Hydro,19.7,50.6517,5.6308
541,541,BEL,LC,IVBO,Waste,16.0,51.2089,3.2242
542,542,BEL,LC,Incinerateur THUMAIDE (IPALLE),Waste,32.0,50.5415,3.6301
543,543,BEL,LC,Intradel Herstal,Waste,32.0,50.6642,5.6235
544,544,BEL,LC,Kristal,Solar,99.5,51.203,5.265
545,545,BEL,LC,LANGERBRUGGE STORA ST 2,Waste,50.0,51.05,3.7167
546,546,BEL,LC,La Vierre,Hydro,1.9,49.733,5.377
547,547,BEL,LC,Loghidden City,Solar,13.0,51.273,4.288
548,548,BEL,LC,Northwind,Wind,216.0,51.6186,2.8998
549,549,BEL,LC,PLATE TAILLE T,Hydro,144.0,50.1884,4.3861
550,550,BEL,LC,RODENHUIZE 4,Biomass,268.0,51.1341,3.777
551,551,BEL,LC,RODENHUIZE WIND,Wind,4.5,51.1357,3.7878
552,552,BEL,LC,SCHELLE WIND,Wind,4.5,51.1265,4.3226
553,553,BEL,LC,Schaerbeek Siomab ST1,Waste,45.0,50.8504,4.3488
554,554,BEL,LC,TIHANGE 1N,Nuclear,962.0,50.5342,5.2751
555,555,BEL,LC,TIHANGE 3,Nuclear,2053.8,50.5342,5.2751
556,556,BEL,LC,Thorntonbank - C-Power - Area NE,Wind,147.6,51.556,2.9689
557,557,BEL,LC,Thorntonbank - C-Power - Area SW,Wind,177.6,51.54,2.921
558,558,BEL,LC,WM Park Powerport Zeebrugge,Wind,12.0,51.329,3.1819
559,559,BEL,LC,Wilmarsdonk,Solar,3.7,51.2709,4.3812
560,560,BEL,LC,Wilrijk Isvag,Waste,10.5,51.1673,4.3951
561,561,BEL,LC,Windvision Estinnes WIND,Wind,80.0,50.4116,4.0804
562,562,BEL,LC,ZEEBRUGGE WIND,Wind,12.0,51.3596,3.2219
563,563,BTN,LC,Basochhu Hydroelectric Power Plant Bhutan,Hydro,64.0,27.4254,89.9043
564,564,BTN,LC,Chhukha Hydroelectric Power Plant Bhutan,Hydro,336.0,27.1104,89.5313
565,565,BTN,LC,Kurichhu Hydro-electric Power Station Bhutan,Hydro,60.0,27.2162,91.2035
566,566,BTN,LC,Rangjung Small Hydroelectric Power Plant Bhutan,Hydro,2.2,27.3567,91.6497
567,567,BTN,LC,Tala Hydroelectric Power Plant Bhutan,Hydro,1020.0,27.036,89.5953
568,568,BOL,LC,Botijlaca Hydroelectric Power Plant Bolivia,Hydro,10.6,-16.1925,-68.1405
569,569,BOL,LC,Cahua Hydroelectric Power Plant Bolivia,Hydro,30.0,-16.0456,-67.9939
570,570,BOL,LC,Chojlla Hydroelectric Power Plant Bolivia,Hydro,38.4,-16.4124,-67.7725
571,571,BOL,LC,Chururaqui Hydroelectric Power Plant Bolivia,Hydro,34.0,-16.105,-68.067
572,572,BOL,LC,Cobija,Solar,5.0,-11.025,-68.815
573,573,BOL,LC,Corani Hydroelectric Power Plant Bolivia,Hydro,54.0,-17.2122,-65.8758
574,574,BOL,LC,Cutichucho Hydroelectric Power Plant Bolivia,Hydro,24.0,-16.1425,-68.1158
575,575,BOL,LC,Harca Hydroelectric Power Plant Bolivia,Hydro,30.0,-16.0784,-68.0336
576,576,BOL,LC,Huaji Hydroelectric Power Plant Bolivia,Hydro,34.0,-16.0416,-67.9566
577,577,BOL,LC,Sainani Hydroelectric Power Plant Bolivia,Hydro,11.0,-16.124,-68.09
578,578,BOL,LC,Santa Isabel Hydroelectric Power Plant Bolivia,Hydro,93.4,-17.1916,-65.8232
579,579,BOL,LC,Santa Rosa Hydroelectric Power Plant Bolivia,Hydro,18.0,-16.1318,-68.1095
580,580,BOL,LC,Tiquimani Hydroelectric Power Plant Bolivia,Hydro,9.6,-16.2072,-68.1235
581,581,BOL,LC,Uyuni Colcha K,Solar,50.0,-20.75,-67.65
582,582,BOL,LC,Yanacachi Norte Hydroelectric Power Plant Bolivia,Hydro,51.1,-16.3887,-67.7373
583,583,BOL,LC,Yunchara,Solar,5.6,-21.83,-65.23
584,584,BOL,LC,Zongo Hydroelectric Power Plant Bolivia,Hydro,11.0,-16.2719,-68.1227
585,585,BIH,LC,Bocac Hydroelectric Power Plant Bosnia and Herzegovina,Hydro,110.0,44.5075,17.1618
586,586,BIH,LC,Capljina Pumped Storage Power Plant Bosnia and Herzegovina,Hydro,420.0,43.0133,17.8041
587,587,BIH,LC,Dubrovnik Hydroelectric Power Plant Bosnia and Herzegovina,Hydro,216.0,42.6037,18.2357
588,588,BIH,LC,Grabovica Hydroelectric Power Plant Bosnia and Herzegovina,Hydro,115.0,43.5872,17.7189
589,589,BIH,LC,Jablanica Hydroelectric Power Plant Bosnia and Herzegovina,Hydro,180.0,43.6924,17.7325
590,590,BIH,LC,Jajce I Hidroelektrana Bosnia and Herzegovina,Hydro,48.0,44.3774,17.2816
591,591,BIH,LC,Jajce II Hidroelektrana Bosnia and Herzegovin,Hydro,30.0,44.4279,17.2404
592,592,BIH,LC,Krupa Hydroelectric Power Plant Bosnia and Herzegovina,Hydro,48.5,44.5624,17.135
593,593,BIH,LC,Mostar Hydroelectric Power Plant Bosnia and Herzegovina,Hydro,75.0,43.3776,17.8449
594,594,BIH,LC,Mostarsko Blato Hydroelectric Power Plant Bosnia and Herzegovina,Hydro,60.0,43.2989,17.794
595,595,BIH,LC,Pec Mlini Hydroelectric Power Plant Bosnia and Herzegovina,Hydro,30.0,43.3375,17.3261
596,596,BIH,LC,Rama Hydroelectric Power Plant Bosnia and Herzegovina,Hydro,160.0,43.747,17.6758
597,597,BIH,LC,Salakovac Hydroelectric Power Plant Bosnia and Herzegovina,Hydro,210.0,43.4478,17.8369
598,598,BIH,LC,Trebinje I Hydroelectric Power Plant Bosnia and Herzegovina,Hydro,180.0,42.7338,18.4971
599,599,BIH,LC,Trebinje II Hydroelectric Power Plant Bosnia and Herzegovina,Hydro,8.0,42.7066,18.3805
600,600,BIH,LC,Visegrad Hydroelectric Power Plant Bosnia and Herzegovina,Hydro,315.0,43.7603,19.2891
601,601,BRA,LC,14 de Julho,Hydro,100.71,-29.0648,-51.6749
602,602,BRA,LC,AREVALE,Biomass,2.0,-22.8877,-45.3275
603,603,BRA,LC,ARS,Hydro,6.66,-13.0992,-54.8189
604,604,BRA,LC,AVG I-II,Biomass,4.8,-19.4632,-44.2871
605,605,BRA,LC,Abranjo I,Hydro,4.86,-30.7944,-52.6272
606,606,BRA,LC,Abrasa,Hydro,1.46,-26.7712,-52.1902
607,607,BRA,LC,Agostinho Rodrigues,Hydro,1.3005,-20.2617,-43.7981
608,608,BRA,LC,Agro Trafo,Hydro,14.683,-11.675,-46.6722
609,609,BRA,LC,Agroalcool,Biomass,1.2,-20.6583,-49.8415
610,610,BRA,LC,Agropéu,Biomass,21.6,-19.2517,-44.985
611,611,BRA,LC,Agrovale,Biomass,14.0,-9.4938,-40.3564
612,612,BRA,LC,Agudo,Hydro,3.9,-27.5247,-51.5067
613,613,BRA,LC,Aguti,Hydro,3.893,-27.3156,-49.0858
614,614,BRA,LC,Aimorés,Hydro,330.0,-19.4983,-41.0236
615,615,BRA,LC,Albano Machado,Hydro,3.0,-27.4967,-52.8036
616,616,BRA,LC,Albatroz,Wind,4.8,-6.5475,-34.968
617,617,BRA,LC,Albertina,Biomass,4.25,-21.0335,-47.9605
618,618,BRA,LC,Alcomira,Biomass,2.4,-21.1971,-51.2083
619,619,BRA,LC,Alcon,Biomass,11.2,-18.4533,-39.9358
620,620,BRA,LC,Alcoolvale,Biomass,4.2,-20.0833,-51.2895
621,621,BRA,LC,Alcídia,Biomass,38.1,-22.3457,-52.5145
622,622,BRA,LC,Alecrim,Hydro,72.0,-24.0814,-47.5067
623,623,BRA,LC,Alegre,Hydro,2.056,-20.7672,-41.5306
624,624,BRA,LC,Alegria I,Wind,51.0,-5.0944,-36.3629
625,625,BRA,LC,Alegria II,Wind,100.65,-5.1243,-36.3833
626,626,BRA,LC,Alhandra,Wind,6.3,-7.2731,-34.9344
627,627,BRA,LC,Almirante Álvaro Alberto - Unidade I (Antiga Angra I),Nuclear,640.0,-23.0087,-44.4574
628,628,BRA,LC,Almirante Álvaro Alberto - Unidade II (Antiga Angra II),Nuclear,1350.0,-23.0072,-44.4588
629,629,BRA,LC,Alta Floresta,Hydro,5.0,-11.9319,-62.0425
630,630,BRA,LC,Alta Mogiana,Biomass,75.0,-20.4819,-47.8662
631,631,BRA,LC,Alto Benedito Novo,Hydro,2.544,-26.7819,-49.3972
632,632,BRA,LC,Alto Benedito Novo I,Hydro,15.0,-26.7667,-49.4333
633,633,BRA,LC,Alto Brejaúba,Hydro,1.35,-18.9011,-42.446
634,634,BRA,LC,Alto Fêmeas I,Hydro,10.649,-12.45,-45.2
635,635,BRA,LC,Alto Irani,Hydro,21.0,-27.0094,-52.4303
636,636,BRA,LC,Alto Jatapu,Hydro,5.0,0.9,-59.3333
637,637,BRA,LC,Alto Paraguai (Pedro Pedrossian),Hydro,1.68,-14.5069,-56.4025
638,638,BRA,LC,Alto Sucuriú,Hydro,29.0,-19.245,-52.8994
639,639,BRA,LC,Alvorada,Biomass,8.0,-21.3049,-46.8541
640,640,BRA,LC,Alvorada,Wind,8.0,-14.1852,-42.5911
641,641,BRA,LC,Amador Aguiar I (Antiga Capim Branco I),Hydro,243.675,-18.7903,-48.1472
642,642,BRA,LC,Amador Aguiar II (Antiga Capim Branco II),Hydro,210.0,-18.6597,-48.4353
643,643,BRA,LC,Amandina,Biomass,120.0,-22.4341,-53.5685
644,644,BRA,LC,Ambient,Waste,1.5,-21.1008,-47.8035
645,645,BRA,LC,Americana,Hydro,30.0,-22.699,-47.2842
646,646,BRA,LC,Ametista,Wind,28.56,-14.172,-42.7002
647,647,BRA,LC,Amparo,Wind,22.5,-26.6183,-51.5646
648,648,BRA,LC,Anagé,Hydro,1.0,-14.6286,-41.1889
649,649,BRA,LC,Angelina (Antiga Portobello - Corredeira do Encano),Hydro,26.29,-27.4547,-48.9828
650,650,BRA,LC,Angical,Wind,12.95,-14.3461,-42.6137
651,651,BRA,LC,Angélica,Biomass,96.0,-22.1522,-53.7618
652,652,BRA,LC,Anhanguera,Hydro,22.68,-20.4667,-47.8667
653,653,BRA,LC,Anna Maria,Hydro,1.68,-21.4858,-43.4539
654,654,BRA,LC,Antunes,Hydro,1.0,-27.6497,-51.195
655,655,BRA,LC,Antônio Brennand (Antiga  Alto Jauru),Hydro,21.96,-15.0472,-58.7517
656,656,BRA,LC,Antônio Dias,Hydro,1.35,-19.6047,-42.8583
657,657,BRA,LC,Antônio Viel,Hydro,2.9028,-27.2714,-51.5481
658,658,BRA,LC,Apiaí,Hydro,1.0,-24.4789,-49.0636
659,659,BRA,LC,Apodi,Solar,120.0,-5.06,-37.755
660,660,BRA,LC,Apolônio Sales (Antiga Moxotó),Hydro,400.0,-9.3575,-38.2083
661,661,BRA,LC,Aporé,Hydro,1.0,-18.6805,-52.5842
662,662,BRA,LC,Aquarius,Hydro,4.2,-17.6167,-54.9167
663,663,BRA,LC,Aquibatã,Wind,30.0,-26.5848,-51.7532
664,664,BRA,LC,Aracruz,Biomass,210.4,-19.843,-40.0747
665,665,BRA,LC,Araguassu,Biomass,1.2,-10.874,-51.6235
666,666,BRA,LC,Aralco,Biomass,4.8,-20.9045,-50.4015
667,667,BRA,LC,Aratuá I,Wind,14.4,-5.0919,-36.3377
668,668,BRA,LC,Areal,Hydro,18.0,-22.2333,-43.0833
669,669,BRA,LC,Areal,Hydro,5.14917,-22.1561,-44.0875
670,670,BRA,LC,Areia,Hydro,11.4,-11.6986,-46.7361
671,671,BRA,LC,Areia Branca,Wind,27.3,-4.9686,-36.9009
672,672,BRA,LC,Areia Branca,Hydro,19.8,-19.5761,-41.8028
673,673,BRA,LC,Arizona 1,Wind,28.0,-5.3042,-35.382
674,674,BRA,LC,Arroio Trinta,Hydro,1.0,-26.88,-51.2797
675,675,BRA,LC,Arrudas,Waste,2.4,-19.8953,-43.8783
676,676,BRA,LC,Artivinco (Antiga Rio Pardo),Biomass,4.5,-21.4998,-47.3568
677,677,BRA,LC,Arturo Andreoli (Antiga Júlio de Mesquita Filho),Hydro,29.072,-25.5681,-53.0742
678,678,BRA,LC,Arvoredo,Hydro,13.0,-27.0667,-52.4833
679,679,BRA,LC,Asa Branca I,Wind,27.0,-5.2323,-35.8266
680,680,BRA,LC,Asa Branca II,Wind,27.0,-5.2286,-35.8808
681,681,BRA,LC,Asa Branca III,Wind,27.0,-5.2551,-35.8436
682,682,BRA,LC,Asa Branca IV,Wind,32.0,-5.3291,-35.9916
683,683,BRA,LC,Asa Branca V,Wind,32.0,-5.3828,-36.0088
684,684,BRA,LC,Asa Branca VI,Wind,32.0,-5.3596,-35.9987
685,685,BRA,LC,Asa Branca VII,Wind,32.0,-5.2529,-35.943
686,686,BRA,LC,Asa Branca VIII,Wind,32.0,-5.2812,-35.9804
687,687,BRA,LC,Asja BH,Waste,4.2780000000000005,-19.813,-43.9465
688,688,BRA,LC,Assis Chateaubriand(Antiga Salto Mimoso),Hydro,29.5,-20.6753,-53.5676
689,689,BRA,LC,Assu V,Solar,30.0,-5.555,-37.015
690,690,BRA,LC,Assuruá II,Wind,30.0,-11.1573,-42.6791
691,691,BRA,LC,Assuruá V,Wind,20.0,-11.1967,-42.6949
692,692,BRA,LC,Assuruá VII,Wind,18.0,-11.1674,-42.7
693,693,BRA,LC,Atlântica,Wind,4.8,-6.5474,-34.9737
694,694,BRA,LC,Atlântica I,Wind,30.0,-30.3188,-50.3161
695,695,BRA,LC,Atlântica II,Wind,30.0,-30.3265,-50.3234
696,696,BRA,LC,Atlântica IV,Wind,30.0,-30.2919,-50.335
697,697,BRA,LC,Atlântica V,Wind,30.0,-30.2915,-50.305
698,698,BRA,LC,Atos,Biomass,3.0,-9.8679,-57.8132
699,699,BRA,LC,Aura Mangueira XI,Wind,9.0,-33.0519,-52.8587
700,700,BRA,LC,Aura Mangueira XII,Wind,15.0,-33.1318,-52.9938
701,701,BRA,LC,Aura Mangueira XIII,Wind,15.0,-33.079,-52.8855
702,702,BRA,LC,Aura Mangueira XV,Wind,18.0,-33.142,-52.9626
703,703,BRA,LC,Aura Mirim IV,Wind,15.0,-33.0511,-52.9371
704,704,BRA,LC,Autódromo,Hydro,24.0,-28.8258,-51.8414
705,705,BRA,LC,Avelar,Hydro,1.0,-22.2939,-43.4181
706,706,BRA,LC,BEN Bioenergia,Biomass,53.0,-9.9125,-36.3245
707,707,BRA,LC,BJL ENEL,Solar,158.0,-12.597,-44.107
708,708,BRA,LC,Baguari,Hydro,140.544,-19.022,-42.123
709,709,BRA,LC,Bahia Pulp (Antiga Bacell),Biomass,108.6,-12.6389,-38.3275
710,710,BRA,LC,Baixa do Feijão I,Wind,30.0,-5.3698,-36.0317
711,711,BRA,LC,Baixa do Feijão II,Wind,30.0,-5.3022,-36.0381
712,712,BRA,LC,Baixa do Feijão III,Wind,30.0,-5.3449,-36.04
713,713,BRA,LC,Baixa do Feijão IV,Wind,30.0,-5.322,-36.0606
714,714,BRA,LC,Balbina,Hydro,249.75,-1.9158,-59.4733
715,715,BRA,LC,Baldin,Biomass,45.0,-21.9833,-47.4404
716,716,BRA,LC,Bambuí,Biomass,30.0,-20.0826,-46.0278
717,717,BRA,LC,Banda de Couro,Wind,32.9,-9.8288,-41.0624
718,718,BRA,LC,Bandeirante,Hydro,3.0,-26.7994,-53.6667
719,719,BRA,LC,Bandeirantes,Waste,4.624,-23.4158,-46.7464
720,720,BRA,LC,Baraúnas I,Wind,32.9,-9.8868,-41.1203
721,721,BRA,LC,Baraúnas II,Wind,25.85,-9.8412,-41.1037
722,722,BRA,LC,Bariri (Álvaro de Souza Lima),Hydro,136.8,-22.1533,-48.7525
723,723,BRA,LC,Barra,Hydro,5.2,-25.7667,-52.0833
724,724,BRA,LC,Barra,Hydro,40.4,-24.0242,-47.3556
725,725,BRA,LC,Barra Bioenergia,Biomass,136.0,-22.474,-48.5225
726,726,BRA,LC,Barra Bonita,Hydro,140.76,-22.5194,-48.5344
727,727,BRA,LC,Barra Escondida,Hydro,2.25,-26.9039,-53.0297
728,728,BRA,LC,Barra Grande,Hydro,698.25,-27.7769,-51.1933
729,729,BRA,LC,Barra Grande de Lençóis,Biomass,62.9,-22.6213,-48.7473
730,730,BRA,LC,Barra da Paciência,Hydro,23.0,-18.95,-42.6
731,731,BRA,LC,Barra do Braúna,Hydro,39.0,-21.45,-42.4
732,732,BRA,LC,Barra do Rio Chapéu,Hydro,15.15,-28.0678,-49.1508
733,733,BRA,LC,Barra dos Coqueiros,Hydro,90.0,-18.7233,-51.0031
734,734,BRA,LC,Barra dos Coqueiros,Wind,34.5,-10.81,-36.9293
735,735,BRA,LC,Barralcool,Biomass,30.0,-15.0282,-57.2014
736,736,BRA,LC,Barulho,Hydro,1.32,-21.9983,-44.4039
737,737,BRA,LC,Batalha (Antiga Paulista),Hydro,52.5,-17.35,-47.4833
738,738,BRA,LC,Batatais,Biomass,3.9,-20.7537,-47.5664
739,739,BRA,LC,Batista,Hydro,2.704,-23.8397,-47.6531
740,740,BRA,LC,Bazan,Biomass,10.2,-21.0061,-47.9836
741,741,BRA,LC,Baía Formosa,Biomass,40.0,-6.4123,-35.0462
742,742,BRA,LC,Bela União (Trincheira),Hydro,2.25,-27.7808,-54.3734
743,743,BRA,LC,Bela Vista,Biomass,9.8,-20.9362,-48.0708
744,744,BRA,LC,Belmonte,Hydro,3.6,-26.8333,-53.6667
745,745,BRA,LC,Belo Monte,Hydro,3327.45544,-3.1264,-51.775
746,746,BRA,LC,Bem Brasil,Biomass,2.125,-19.5641,-46.8975
747,747,BRA,LC,Benjamim Mário Baptista (Antiga Nova Sinceridade),Hydro,9.0,-20.2139,-41.9889
748,748,BRA,LC,Benálcool,Biomass,4.2,-21.2276,-50.7655
749,749,BRA,LC,Berneck,Biomass,12.0,-25.5382,-49.3615
750,750,BRA,LC,Bertussi,Hydro,1.0,-28.8669,-50.939
751,751,BRA,LC,Bio Alvorada,Biomass,50.0,-18.4371,-49.1806
752,752,BRA,LC,Bio Coopcana,Biomass,50.0,-23.2655,-52.4761
753,753,BRA,LC,Bio Fuel,Biomass,4.8,0.9637,-59.9464
754,754,BRA,LC,Bioenergética Aroeira,Biomass,16.0,-18.7515,-48.6035
755,755,BRA,LC,Bioenergética Vale do Paracatu - BEVAP,Biomass,55.0,-17.0582,-46.1741
756,756,BRA,LC,Bioflex Caeté,Biomass,62.5,-9.773,-36.0759
757,757,BRA,LC,Biolins,Biomass,28.0,-21.6724,-49.7711
758,758,BRA,LC,Biopav II,Biomass,65.0,-21.2097,-50.1895
759,759,BRA,LC,Biotérmica Recreio,Waste,8.556000000000001,-30.1468,-52.0165
760,760,BRA,LC,Boa Esperança (Antiga Castelo Branco),Hydro,237.3,-6.752,-43.5641
761,761,BRA,LC,Boa Fé,Hydro,24.0,-28.7527,-51.8436
762,762,BRA,LC,Boa Sorte,Hydro,16.0,-11.8803,-46.7717
763,763,BRA,LC,Boa Vista,Biomass,80.0,-18.5423,-50.4335
764,764,BRA,LC,Boa Vista II,Hydro,8.0,-24.9229,-51.3963
765,765,BRA,LC,Boca do Córrego,Wind,24.3,-3.0984,-39.6663
766,766,BRA,LC,Bocaiúva,Hydro,30.0,-12.5303,-57.8808
767,767,BRA,LC,Bom Jardim,Wind,30.0,-28.4403,-49.5703
768,768,BRA,LC,Bom Jesus,Biomass,3.2,-8.2781,-35.0286
769,769,BRA,LC,Bom Retiro,Biomass,3.6,-22.8693,-47.444
770,770,BRA,LC,Bom Sucesso,Biomass,1.5,-18.0145,-49.7824
771,771,BRA,LC,Bonfante,Hydro,19.0,-22.0089,-43.2653
772,772,BRA,LC,Bons Ventos,Wind,50.0,-4.4472,-37.7596
773,773,BRA,LC,Boqueirão,Hydro,1.0,-7.4878,-36.1386
774,774,BRA,LC,Borgo,Wind,20.16,-14.5084,-42.5867
775,775,BRA,LC,Bortolo Carolo,Biomass,8.0,-20.9967,-48.0154
776,776,BRA,LC,Branco Peres,Biomass,3.98,-21.4838,-51.0189
777,777,BRA,LC,Braço,Hydro,11.52,-22.7833,-44.2333
778,778,BRA,LC,Braço Norte,Hydro,5.18,-9.8322,-55.0153
779,779,BRA,LC,Braço Norte II,Hydro,10.752,-9.7833,-54.9833
780,780,BRA,LC,Braço Norte III,Hydro,14.16,-9.6667,-54.9667
781,781,BRA,LC,Braço Norte IV,Hydro,14.0,-9.6833,-54.9667
782,782,BRA,LC,Braço Seco,Hydro,1.0,-21.6078,-45.4239
783,783,BRA,LC,Brecha,Hydro,12.4,-20.5458,-42.9625
784,784,BRA,LC,Brejauba,Hydro,1.35,-18.9114,-42.44
785,785,BRA,LC,Brotas,Biomass,70.0,-22.3465,-48.0965
786,786,BRA,LC,Bruno Heidrich,Hydro,1.0854,-27.0986,-50.13
787,787,BRA,LC,Bugres,Hydro,11.12,-29.3464,-50.7016
788,788,BRA,LC,Buricá,Hydro,1.4,-27.925,-54.0792
789,789,BRA,LC,Buriti,Wind,30.0,-2.8853,-39.9839
790,790,BRA,LC,Buriti,Hydro,30.0,-19.3333,-52.6667
791,791,BRA,LC,Buriti,Biomass,75.0,-20.2147,-47.6444
792,792,BRA,LC,Buriti,Biomass,5.0,-20.2143,-47.6439
793,793,BRA,LC,Buritirana,Hydro,1.12,-11.9272,-46.2972
794,794,BRA,LC,CAAL,Biomass,3.825,-29.7825,-55.7695
795,795,BRA,LC,CATIVA I,Biomass,1.2,-27.0016,-49.3639
796,796,BRA,LC,CEM (Antiga Camen),Biomass,24.0,-17.9237,-49.1895
797,797,BRA,LC,CMPC (Antiga Aracruz Unidade Guaíba),Biomass,250.994,-30.1293,-51.2975
798,798,BRA,LC,CRV,Biomass,4.0,-15.3429,-49.72
799,799,BRA,LC,CTR Juiz de Fora,Waste,4.2780000000000005,-21.6187,-43.4217
800,800,BRA,LC,Caa-Yari,Hydro,1.0,-27.4292,-54.1206
801,801,BRA,LC,Caarapó,Biomass,114.0,-22.6105,-54.6848
802,802,BRA,LC,Cabeça de Boi,Hydro,30.0,-10.3542,-56.985
803,803,BRA,LC,Cabixi,Hydro,2.7,-12.9567,-60.1247
804,804,BRA,LC,Cabixi II,Hydro,2.8000000000000003,-13.0194,-60.1128
805,805,BRA,LC,Caboclo,Hydro,4.16,-20.495,-43.4828
806,806,BRA,LC,Cabrera,Biomass,25.0,-19.3074,-50.7083
807,807,BRA,LC,Cachoeira,Hydro,11.12,-12.4922,-60.4717
808,808,BRA,LC,Cachoeira,Biomass,7.4,-9.4383,-35.724
809,809,BRA,LC,Cachoeira Caldeirão,Hydro,219.0,0.8533,-51.2917
810,810,BRA,LC,Cachoeira Dourada,Hydro,658.0,-18.5025,-49.4931
811,811,BRA,LC,Cachoeira Dourada,Biomass,40.0,-18.4945,-49.6445
812,812,BRA,LC,Cachoeira Paulista,Hydro,1.0,-22.7486,-44.9056
813,813,BRA,LC,Cachoeira Poço Preto I,Hydro,3.564,-24.0381,-49.4617
814,814,BRA,LC,Cachoeira Poço Preto II,Hydro,2.098,-24.0479,-49.4578
815,815,BRA,LC,Cachoeira da Lixa,Hydro,14.8,-17.0742,-40.0683
816,816,BRA,LC,Cachoeira do Brumado,Hydro,2.34,-21.8528,-43.8886
817,817,BRA,LC,Cachoeira do Lavrinha (Antiga São Patrício),Hydro,3.01,-15.5161,-49.4847
818,818,BRA,LC,Cachoeirinha,Hydro,1.25,-22.57,-46.41
819,819,BRA,LC,Cachoeirinha,Hydro,1.0,-26.7706,-52.1786
820,820,BRA,LC,Cachoeirão,Hydro,27.0,-19.4367,-41.6142
821,821,BRA,LC,Cacimbas 1,Wind,18.9,-3.2532,-39.2809
822,822,BRA,LC,Caconde,Hydro,80.4,-21.5767,-46.6242
823,823,BRA,LC,Caetité,Wind,30.24,-14.1272,-42.5471
824,824,BRA,LC,Caetité 1,Wind,30.0,-14.1632,-42.4845
825,825,BRA,LC,Caetité 2,Wind,30.0,-14.185,-42.503
826,826,BRA,LC,Caetité 3,Wind,30.0,-14.2194,-42.507
827,827,BRA,LC,Caetité A,Wind,23.8,-14.1415,-42.4783
828,828,BRA,LC,Caetité B,Wind,22.1,-14.1146,-42.4749
829,829,BRA,LC,Caetité C,Wind,8.5,-14.1082,-42.4746
830,830,BRA,LC,Caititu,Wind,22.2,-14.4528,-42.641
831,831,BRA,LC,Caixão,Hydro,1.172,-20.0569,-44.6089
832,832,BRA,LC,Caju,Hydro,3.2,-26.9517,-52.4594
833,833,BRA,LC,Caju,Hydro,10.0,-21.8958,-42.0791
834,834,BRA,LC,Cajucoco,Wind,30.0,-2.9159,-39.9544
835,835,BRA,LC,Cajuru,Hydro,7.2,-20.2394,-44.7539
836,836,BRA,LC,Calango 1,Wind,30.0,-6.0339,-36.544
837,837,BRA,LC,Calango 2,Wind,30.0,-6.0166,-36.4835
838,838,BRA,LC,Calango 3,Wind,30.0,-6.0489,-36.546
839,839,BRA,LC,Calango 4,Wind,30.0,-6.0236,-36.472
840,840,BRA,LC,Calango 5,Wind,30.0,-6.0303,-36.488
841,841,BRA,LC,Calango 6,Wind,30.0,-6.0132,-36.4499
842,842,BRA,LC,Calheiros,Hydro,19.0,-20.9847,-41.71
843,843,BRA,LC,Camargos,Hydro,46.0,-21.3256,-44.6161
844,844,BRA,LC,Cambará,Hydro,3.59,-15.9697,-55.0883
845,845,BRA,LC,Camil Alimentos - Camaquã,Biomass,4.0,-30.8189,-51.7039
846,846,BRA,LC,Caminho da Praia,Wind,2.0,-8.3344,-35.0053
847,847,BRA,LC,Campo Belo,Wind,10.5,-26.6123,-51.7401
848,848,BRA,LC,Campo Florido,Biomass,30.0,-19.8091,-48.7255
849,849,BRA,LC,Campo Lindo,Biomass,25.0,-10.4681,-37.1815
850,850,BRA,LC,Campo Real,Hydro,1.0,-25.4175,-51.7514
851,851,BRA,LC,Campo dos Ventos I,Wind,25.2,-5.345,-35.9428
852,852,BRA,LC,Campo dos Ventos II,Wind,30.0,-5.3201,-35.9322
853,853,BRA,LC,Campo dos Ventos III,Wind,25.2,-5.3356,-35.9669
854,854,BRA,LC,Campo dos Ventos V,Wind,25.2,-5.2931,-35.9479
855,855,BRA,LC,Campos Novos,Hydro,880.0,-27.6017,-51.3169
856,856,BRA,LC,Camurim,Wind,4.8,-6.5576,-34.9721
857,857,BRA,LC,Cana Brava,Hydro,450.0,-13.3992,-48.1425
858,858,BRA,LC,Canabrava,Biomass,44.0,-21.6491,-41.3957
859,859,BRA,LC,Canastra,Hydro,42.5,-29.3934,-50.7465
860,860,BRA,LC,Canaã,Biomass,30.0,-22.9258,-47.5567
861,861,BRA,LC,Canaã,Hydro,17.0,-9.9439,-63.0642
862,862,BRA,LC,Candiba,Wind,9.6,-14.1831,-42.6227
863,863,BRA,LC,Canoa Quebrada,Hydro,28.0,-12.7833,-56.0
864,864,BRA,LC,Canoa Quebrada,Wind,57.0,-4.4671,-37.7577
865,865,BRA,LC,Canoas I,Hydro,82.5,-22.9414,-50.5169
866,866,BRA,LC,Canoas II,Hydro,72.0,-22.9361,-50.2497
867,867,BRA,LC,Cantú 2,Hydro,19.8071,-24.7458,-52.4681
868,868,BRA,LC,Capigui,Hydro,3.76,-28.352,-52.204
869,869,BRA,LC,Capivara (Escola de Engenharia Mackenzie),Hydro,619.0,-22.658,-51.3598
870,870,BRA,LC,Capivari,Hydro,18.09,-28.1156,-48.966
871,871,BRA,LC,Capricho,Biomass,2.4,-9.3335,-36.1501
872,872,BRA,LC,Capão Preto,Hydro,4.3,-21.85,-47.7833
873,873,BRA,LC,Capão do Inglês,Wind,10.0,-30.9163,-55.7084
874,874,BRA,LC,Caramuru Sorriso,Biomass,9.696,-12.7418,-55.6773
875,875,BRA,LC,Carandaí,Hydro,4.234,-21.0556,-44.2094
876,876,BRA,LC,Carangola,Hydro,15.0,-20.7019,-42.0394
877,877,BRA,LC,Caravela,Wind,4.8,-6.556,-34.969
878,878,BRA,LC,Carcará I,Wind,30.0,-4.9438,-36.9918
879,879,BRA,LC,Carcará II,Wind,30.0,-4.9457,-37.0036
880,880,BRA,LC,Cargil Três Lagoas,Biomass,6.0,-20.7978,-51.6318
881,881,BRA,LC,Cargill Uberlândia,Biomass,25.0,-18.8483,-48.2765
882,882,BRA,LC,Carlos Gonzatto,Hydro,9.0,-27.6206,-53.8047
883,883,BRA,LC,Casa de Força,Biomass,7.92,-20.2304,-50.3345
884,884,BRA,LC,Casca II,Hydro,3.52,-15.3636,-55.4453
885,885,BRA,LC,Casca III,Hydro,12.42,-15.3576,-55.4553
886,886,BRA,LC,Cascata,Wind,6.0,-26.5889,-51.7427
887,887,BRA,LC,Cascata Chupinguaia,Hydro,9.6,-12.7139,-60.8717
888,888,BRA,LC,Cascata das Andorinhas,Hydro,1.2,-27.35,-52.7667
889,889,BRA,LC,Castaman I (Antiga Enganado),Hydro,1.844,-13.0839,-60.6222
890,890,BRA,LC,Castaman III,Hydro,1.48,-13.1517,-60.6567
891,891,BRA,LC,Castro Alves,Hydro,130.845,-29.0083,-51.3792
892,892,BRA,LC,Catanduva,Biomass,9.0,-21.1254,-48.8248
893,893,BRA,LC,Catanduva (Antiga Cerradinho),Biomass,75.0,-21.0966,-48.9335
894,894,BRA,LC,Catas Altas I,Hydro,4.0,-24.5972,-49.135
895,895,BRA,LC,Caveiras,Hydro,3.829,-27.8156,-50.4803
896,896,BRA,LC,Cavernoso,Hydro,1.26,-25.4936,-52.2128
897,897,BRA,LC,Cavernoso II,Hydro,19.008,-25.4933,-52.225
898,898,BRA,LC,Cazuza Ferreira,Hydro,9.1,-29.0167,-50.7167
899,899,BRA,LC,Caçador,Hydro,22.5,-28.7055,-51.8506
900,900,BRA,LC,Caçu,Hydro,65.0,-18.5294,-51.15
901,901,BRA,LC,Caçú I,Biomass,130.0,-18.6013,-51.1913
902,902,BRA,LC,Celso Ramos,Hydro,5.6000000000000005,-26.7578,-52.2578
903,903,BRA,LC,Celulose Irani,Biomass,4.9,-26.9416,-51.7466
904,904,BRA,LC,Cenibra,Biomass,100.0,-19.216,-42.4745
905,905,BRA,LC,Central Energética Ribeirão Preto (Antiga Galo Bravo),Biomass,9.0,-21.1112,-47.8166
906,906,BRA,LC,Central GH Engenheiro Bernardo Figueiredo,Hydro,2.25,-22.7392,-46.9075
907,907,BRA,LC,Central I,Hydro,1.557,-26.9197,-50.4114
908,908,BRA,LC,Central Mineirão,Solar,1.4184,-19.8656,-43.9711
909,909,BRA,LC,Central Olho D Água,Biomass,25.0,-7.4176,-35.2441
910,910,BRA,LC,Central Termelétrica de Geração (Antiga Forjasul),Biomass,1.8,-30.54,-52.5125
911,911,BRA,LC,Centro Oeste Iguatemi,Biomass,4.0,-23.1627,-54.3845
912,912,BRA,LC,Cepasa,Biomass,5.0,-8.1096,-35.0039
913,913,BRA,LC,Cerradão,Biomass,54.0,-19.9183,-49.1458
914,914,BRA,LC,Cerro Chato I (Antiga Coxilha Negra V),Wind,30.0,-30.8407,-55.7251
915,915,BRA,LC,Cerro Chato II (Antiga Coxilha Negra VI),Wind,30.0,-30.8485,-55.6856
916,916,BRA,LC,Cerro Chato III (Antiga Coxilha Negra VII),Wind,30.0,-30.8018,-55.7142
917,917,BRA,LC,Cerro Chato IV,Wind,10.0,-30.8327,-55.7558
918,918,BRA,LC,Cerro Chato V,Wind,12.0,-30.7957,-55.7556
919,919,BRA,LC,Cerro Chato VI,Wind,24.0,-30.783,-55.6906
920,920,BRA,LC,Cerro dos Trindade,Wind,8.0,-30.8512,-55.7527
921,921,BRA,LC,Cesar Filho,Hydro,7.0,-12.2698,-61.1862
922,922,BRA,LC,Cevasa,Biomass,54.0,-20.7478,-47.4218
923,923,BRA,LC,Chaminé,Hydro,18.0,-25.8153,-49.0606
924,924,BRA,LC,Chapadão Agroenergia,Biomass,92.0,-21.1994,-50.1965
925,925,BRA,LC,Chavantes,Hydro,414.0,-23.1286,-49.7314
926,926,BRA,LC,Chibarro,Hydro,2.6,-21.8881,-48.1472
927,927,BRA,LC,Chupinguaia,Hydro,1.27,-12.5694,-60.8928
928,928,BRA,LC,Chuí 09,Wind,17.900000000000002,-33.6875,-53.381
929,929,BRA,LC,Chuí I,Wind,24.0,-33.6565,-53.3936
930,930,BRA,LC,Chuí II,Wind,22.0,-33.6594,-53.4003
931,931,BRA,LC,Chuí IV,Wind,22.0,-33.6647,-53.4164
932,932,BRA,LC,Chuí V,Wind,30.0,-33.6681,-53.4218
933,933,BRA,LC,Cidezal,Hydro,17.0,-13.37,-59.0126
934,934,BRA,LC,Citrosuco,Biomass,7.0,-21.5947,-48.3636
935,935,BRA,LC,Citrovita Catanduva,Biomass,19.824,-21.134,-48.9635
936,936,BRA,LC,Clealco Clementina,Biomass,11.2,-21.578,-50.4216
937,937,BRA,LC,Clealco Queiroz,Biomass,45.0,-21.8503,-50.2472
938,938,BRA,LC,Coaracy Nunes,Hydro,76.952,0.9031,-51.2592
939,939,BRA,LC,Cocais Grande,Hydro,10.0,-19.5319,-42.7672
940,940,BRA,LC,Cocal,Biomass,28.2,-22.47,-50.7793
941,941,BRA,LC,Cocal II,Biomass,131.3,-22.5268,-51.494
942,942,BRA,LC,Cocamar Maringá,Biomass,13.0,-23.4303,-51.9774
943,943,BRA,LC,Codora,Biomass,48.0,-15.2714,-49.158
944,944,BRA,LC,Codorna,Hydro,1.944,-20.1517,-43.8842
945,945,BRA,LC,Coelhos I,Wind,4.8,-6.5758,-34.9718
946,946,BRA,LC,Coelhos II,Wind,4.8,-6.5701,-34.9674
947,947,BRA,LC,Coelhos III,Wind,4.8,-6.5566,-34.9664
948,948,BRA,LC,Coelhos IV,Wind,4.8,-6.5814,-34.9747
949,949,BRA,LC,Cofercatu,Biomass,4.0,-22.8892,-51.3931
950,950,BRA,LC,Coinbra - Frutesp,Biomass,5.0,-20.9295,-48.5072
951,951,BRA,LC,Coinbra - Frutesp,Biomass,8.0,-21.6335,-48.3421
952,952,BRA,LC,Colino 1,Hydro,11.0,-17.0778,-40.0853
953,953,BRA,LC,Colino 2,Hydro,16.0,-17.0725,-40.1047
954,954,BRA,LC,Colombo Ariranha,Biomass,105.5,-21.2116,-48.8296
955,955,BRA,LC,Colombo Ariranha 2,Biomass,40.0,-21.2118,-48.828
956,956,BRA,LC,Colombo Palestina,Biomass,15.0,-20.3107,-49.5898
957,957,BRA,LC,Colombo Santa Albertina,Biomass,50.0,-20.0361,-50.6662
958,958,BRA,LC,Colorado,Biomass,52.76,-20.2792,-48.1755
959,959,BRA,LC,Colorado,Hydro,1.12,-28.6428,-52.9269
960,960,BRA,LC,Colônia,Wind,18.9,-3.5422,-38.8784
961,961,BRA,LC,Comendador Venâncio,Hydro,1.6,-21.1667,-42.0833
962,962,BRA,LC,Comigo,Biomass,5.0,-15.4212,-49.7344
963,963,BRA,LC,Comvap,Biomass,8.8,-4.8503,-42.8765
964,964,BRA,LC,Congonhal I,Hydro,1.616,-22.1128,-44.8422
965,965,BRA,LC,Conquista de Minas,Biomass,3.6,-20.0167,-47.6159
966,966,BRA,LC,Conquista do Pontal,Biomass,110.0,-22.1202,-51.7568
967,967,BRA,LC,Conselvan,Biomass,1.0,-9.9266,-59.9203
968,968,BRA,LC,Contestado,Hydro,5.6000000000000005,-26.6733,-51.7169
969,969,BRA,LC,Continental,Biomass,8.0,-20.1818,-48.6887
970,970,BRA,LC,Coocarol,Biomass,4.0,-23.3652,-52.7003
971,971,BRA,LC,Cooper-Rubi,Biomass,2.4,-15.1754,-49.7488
972,972,BRA,LC,Cooperfrigo,Biomass,4.0,-21.5208,-49.8611
973,973,BRA,LC,Coopernavi,Biomass,12.0,-23.126,-54.1924
974,974,BRA,LC,Cooperval,Biomass,3.6,-23.6819,-51.6831
975,975,BRA,LC,Coplasa,Biomass,10.0,-21.0286,-49.9184
976,976,BRA,LC,Coprodia,Biomass,6.0,-13.781,-57.8406
977,977,BRA,LC,Coqueiral,Hydro,3.164,-27.5158,-49.0781
978,978,BRA,LC,Coqueirinho,Wind,29.6,-14.4199,-42.6287
979,979,BRA,LC,Coqueiros,Wind,27.0,-2.8855,-39.9721
980,980,BRA,LC,Coraci,Biomass,1.384,-22.6751,-49.7627
981,981,BRA,LC,Corona,Biomass,18.0,-21.4163,-48.2793
982,982,BRA,LC,Coronel Araújo,Hydro,5.8,-26.6725,-51.7525
983,983,BRA,LC,Corredor do Senandes II,Wind,21.6,-32.3862,-52.327
984,984,BRA,LC,Corredor do Senandes III,Wind,27.0,-32.4127,-52.3555
985,985,BRA,LC,Corredor do Senandes IV,Wind,29.7,-32.3689,-52.342
986,986,BRA,LC,Corrente Grande,Hydro,14.0,-18.95,-42.5167
987,987,BRA,LC,Corrente Grande,Hydro,1.25,-18.89,-42.724
988,988,BRA,LC,Corrupião,Wind,27.75,-14.2927,-42.5853
989,989,BRA,LC,Corumbataí,Hydro,1.7,-22.4833,-47.6
990,990,BRA,LC,Corumbá I,Hydro,375.3,-17.9893,-48.531
991,991,BRA,LC,Corumbá III,Hydro,96.447,-16.7861,-47.9419
992,992,BRA,LC,Corumbá IV,Hydro,127.0,-16.3208,-48.1883
993,993,BRA,LC,Coruripe,Biomass,16.0,-9.9783,-36.2156
994,994,BRA,LC,Coruripe Energética - Filial Campo Florido,Biomass,30.0,-19.8089,-48.7295
995,995,BRA,LC,Coruripe Iturama,Biomass,24.0,-19.7046,-50.3289
996,996,BRA,LC,Costa Bioenergia,Biomass,15.0,-23.6592,-53.3994
997,997,BRA,LC,Costa Branca,Wind,20.7,-5.4215,-35.8526
998,998,BRA,LC,Costa Pinto,Biomass,75.0,-22.6357,-47.6749
999,999,BRA,LC,Costa Rica,Hydro,16.0,-18.5667,-53.1333
1000,1000,BRA,LC,Cotiporã,Hydro,19.5,-28.9666,-51.75
1001,1001,BRA,LC,Cotovelo do Jacuí,Hydro,3.34,-28.6714,-52.7086
1002,1002,BRA,LC,Coxilha Seca,Wind,30.0,-30.888,-55.7352
1003,1003,BRA,LC,Cristalino,Hydro,4.0,-24.5633,-51.5533
1004,1004,BRA,LC,Cristina,Hydro,3.8,-22.1578,-45.2806
1005,1005,BRA,LC,Criúva,Hydro,23.949,-28.9808,-50.7825
1006,1006,BRA,LC,Cruz Alta,Wind,30.0,-26.5994,-51.7255
1007,1007,BRA,LC,Cucaú,Biomass,12.6,-8.6369,-35.2617
1008,1008,BRA,LC,Culuene,Hydro,1.794,-14.6333,-53.9333
1009,1009,BRA,LC,Curemas,Hydro,3.52,-7.0167,-37.9667
1010,1010,BRA,LC,Curuá-Una,Hydro,30.3,-2.8117,-54.2989
1011,1011,BRA,LC,Córrego Santa Cruz,Hydro,1.0,-12.6456,-58.3189
1012,1012,BRA,LC,D,Hydro,1.36,-20.1169,-43.8681
1013,1013,BRA,LC,DVPA,Biomass,28.0,-17.1171,-46.6541
1014,1014,BRA,LC,Da Fazenda,Hydro,27.0,-10.3303,-56.9814
1015,1015,BRA,LC,Da Ilha,Hydro,26.0,-28.8833,-51.45
1016,1016,BRA,LC,Da Mata,Biomass,40.0,-21.3255,-50.9456
1017,1017,BRA,LC,Da Pedra,Biomass,70.0,-21.1706,-47.6205
1018,1018,BRA,LC,Da Prata,Wind,21.84,-13.9643,-42.6389
1019,1019,BRA,LC,Dacal,Biomass,4.4,-21.9106,-50.856
1020,1020,BRA,LC,Dacalda,Biomass,6.0,-23.1569,-50.0936
1021,1021,BRA,LC,Dalapria,Hydro,1.44,-26.7961,-52.1367
1022,1022,BRA,LC,Dalba,Hydro,1.0,-25.2817,-51.877
1023,1023,BRA,LC,Damascena,Wind,30.0,-11.8567,-41.4742
1024,1024,BRA,LC,Dardanelos,Hydro,261.0,-10.1633,-59.4642
1025,1025,BRA,LC,Dasa,Biomass,4.2,-17.8335,-40.1786
1026,1026,BRA,LC,Decasa,Biomass,33.0,-22.7623,-50.1025
1027,1027,BRA,LC,Della Coletta,Biomass,4.0,-22.0536,-48.7021
1028,1028,BRA,LC,Delta,Biomass,101.875,-19.9716,-47.7589
1029,1029,BRA,LC,Delta do Parnaíba,Wind,30.0,-2.8318,-41.7136
1030,1030,BRA,LC,Derivação do Rio Jordão,Hydro,6.5,-25.7589,-52.0869
1031,1031,BRA,LC,Destil,Biomass,3.4,-21.2515,-49.1283
1032,1032,BRA,LC,Destilaria Guaricanga,Biomass,1.6,-22.0541,-49.3107
1033,1033,BRA,LC,Destilaria Malosso,Biomass,4.0,-21.6237,-48.821
1034,1034,BRA,LC,Destilaria Melhoramentos,Biomass,18.38,-23.5612,-52.4182
1035,1035,BRA,LC,Destilaria Paraguaçu,Biomass,3.6,-22.4618,-50.4825
1036,1036,BRA,LC,Destilaria Porto Alegre,Biomass,2.4,-8.8935,-35.6571
1037,1037,BRA,LC,Destilaria de Álcool Ibaiti,Biomass,3.6,-23.6782,-50.4048
1038,1038,BRA,LC,Destivale,Biomass,5.0,-21.114,-50.4543
1039,1039,BRA,LC,Diacal II,Hydro,5.04,-11.7403,-46.7525
1040,1040,BRA,LC,Diamante,Biomass,7.0,-22.3657,-48.6834
1041,1041,BRA,LC,Diamante (Antiga Camargo Corrêa),Hydro,4.23,-14.3464,-56.7947
1042,1042,BRA,LC,Diana,Biomass,2.873,-21.3973,-49.884
1043,1043,BRA,LC,Dianópolis,Hydro,5.5,-11.4661,-46.8189
1044,1044,BRA,LC,Divino,Hydro,1.251,-20.6994,-42.075
1045,1045,BRA,LC,Divisa,Hydro,10.8,-13.3631,-59.1419
1046,1046,BRA,LC,Doido,Hydro,6.0,-11.7098,-46.7563
1047,1047,BRA,LC,Dois Córregos,Biomass,3.6,-22.3348,-48.3971
1048,1048,BRA,LC,Dois Riachos,Wind,30.0,-11.8225,-41.4591
1049,1049,BRA,LC,Dois Vizinhos,Biomass,1.98,-25.73,-53.0475
1050,1050,BRA,LC,Dona Francisca,Hydro,125.0,-29.4496,-53.2857
1051,1051,BRA,LC,Dona Maria Piana,Hydro,1.0,-29.2,-51.25
1052,1052,BRA,LC,Dos Araçás,Wind,31.86,-14.1296,-42.5597
1053,1053,BRA,LC,Dourados,Hydro,10.8,-20.65,-47.6833
1054,1054,BRA,LC,Dourados,Wind,28.56,-14.1523,-42.6816
1055,1055,BRA,LC,Dreen Boa Vista,Wind,14.0,-5.1106,-35.9279
1056,1056,BRA,LC,Dreen Olho D Água,Wind,30.0,-5.0545,-35.9687
1057,1057,BRA,LC,Dreen São Bento do Norte,Wind,30.0,-5.053,-35.9784
1058,1058,BRA,LC,Dulcini,Biomass,1.8512,-22.6107,-46.9245
1059,1059,BRA,LC,Dunas de Paracuru,Wind,42.0,-3.4367,-38.9854
1060,1060,BRA,LC,Durandé,Hydro,3.0,-20.0797,-41.7336
1061,1061,BRA,LC,E,Hydro,1.4,-20.1167,-43.8858
1062,1062,BRA,LC,E Nova,Hydro,2.744,-20.1258,-43.9502
1063,1063,BRA,LC,ERB Candeias,Biomass,16.79,-12.763,-38.4718
1064,1064,BRA,LC,Ecoluz,Biomass,12.33,-25.3893,-51.4458
1065,1065,BRA,LC,Egídio,Biomass,2.0,-10.314,-58.3495
1066,1066,BRA,LC,Eldorado,Biomass,141.019,-21.8514,-54.0159
1067,1067,BRA,LC,Eldorado Brasil,Biomass,226.0,-20.5957,-51.5975
1068,1068,BRA,LC,Eloy Chaves,Hydro,19.0,-22.7,-47.2833
1069,1069,BRA,LC,Embaúba,Hydro,4.5,-15.9825,-55.0828
1070,1070,BRA,LC,Emborcação,Hydro,1192.0,-18.4519,-47.9859
1071,1071,BRA,LC,Embuaca,Wind,27.3,-3.2147,-39.3288
1072,1072,BRA,LC,Emiliana,Wind,28.2,-13.91,-42.6242
1073,1073,BRA,LC,Enacel,Wind,31.5,-4.5099,-37.7607
1074,1074,BRA,LC,Energia Madeiras,Biomass,4.0,-26.1852,-50.3597
1075,1075,BRA,LC,Energy Green,Biomass,5.0,-24.9522,-50.1
1076,1076,BRA,LC,Energética Itajubara,Biomass,4.4,-4.2788,-42.9783
1077,1077,BRA,LC,Energética Santa Helena,Biomass,3.2,-21.9943,-53.4155
1078,1078,BRA,LC,Enervale,Biomass,30.0,-17.0598,-46.1705
1079,1079,BRA,LC,Engenheiro Ernesto Jorge Dreher,Hydro,17.87,-29.1203,-53.3678
1080,1080,BRA,LC,Engenheiro Henrique Kotzian,Hydro,13.0,-29.1306,-53.3156
1081,1081,BRA,LC,Engenheiro José Gelásio da Rocha,Hydro,24.435,-16.7,-54.76
1082,1082,BRA,LC,Engenheiro José Luiz Muller de Godoy Pereira (Antiga Foz do Rio Claro),Hydro,68.4,-19.1178,-50.6456
1083,1083,BRA,LC,Engenho Coradini,Biomass,1.2,-30.9735,-54.6353
1084,1084,BRA,LC,Equipav,Biomass,58.4,-21.5208,-49.8611
1085,1085,BRA,LC,Equipav II,Biomass,80.0,-21.5208,-49.8611
1086,1086,BRA,LC,Ernestina,Hydro,4.8,-28.5558,-52.5456
1087,1087,BRA,LC,Ernesto Lavratti Neto,Hydro,1.0,-26.5531,-52.3272
1088,1088,BRA,LC,Esmeralda,Hydro,22.2,-27.7833,-51.3667
1089,1089,BRA,LC,Esmeril,Hydro,5.04,-20.8333,-47.3
1090,1090,BRA,LC,Esperança,Hydro,2.4,-13.7786,-59.7889
1091,1091,BRA,LC,Espigão,Hydro,2.3000000000000003,-11.4797,-60.7469
1092,1092,BRA,LC,Espigão,Wind,10.08,-14.477,-42.5853
1093,1093,BRA,LC,Espora,Hydro,32.01,-18.6758,-51.8656
1094,1094,BRA,LC,Espraiado,Hydro,1.25,-22.35,-46.225
1095,1095,BRA,LC,Ester,Biomass,46.4,-22.6533,-47.2014
1096,1096,BRA,LC,Estivas,Biomass,17.0,-6.2266,-35.198
1097,1097,BRA,LC,Estreito,Hydro,1087.0,-6.5872,-47.4594
1098,1098,BRA,LC,Estreito (Luiz Carlos Barreto de Carvalho),Hydro,1048.0,-20.1506,-47.2794
1099,1099,BRA,LC,Estrela,Wind,29.7,-3.248,-39.2943
1100,1100,BRA,LC,Euclidelândia,Hydro,1.4,-21.9166,-42.2549
1101,1101,BRA,LC,Euclides da Cunha,Hydro,108.8,-21.6031,-46.9492
1102,1102,BRA,LC,Eurus I,Wind,30.0,-5.3651,-35.8619
1103,1103,BRA,LC,Eurus II,Wind,30.0,-5.3919,-35.8331
1104,1104,BRA,LC,Eurus III,Wind,30.0,-5.3973,-35.8749
1105,1105,BRA,LC,Eurus IV,Wind,27.0,-5.2622,-35.8145
1106,1106,BRA,LC,Eurus VI,Wind,8.0,-5.2329,-35.9318
1107,1107,BRA,LC,Evo,Hydro,1.0,-24.474,-51.7922
1108,1108,BRA,LC,Eólica Canoa Quebrada,Wind,10.5,-4.5358,-37.6953
1109,1109,BRA,LC,Eólica Icaraizinho,Wind,54.6,-3.0179,-39.6741
1110,1110,BRA,LC,Eólica Paracuru,Wind,25.2,-3.4315,-38.962
1111,1111,BRA,LC,Eólica Praias de Parajuru,Wind,28.804,-4.3631,-37.8839
1112,1112,BRA,LC,Eólica de Prainha,Wind,10.0,-3.8708,-38.3803
1113,1113,BRA,LC,Eólica de Taíba,Wind,5.0,-3.4953,-38.9339
1114,1114,BRA,LC,Eólica Água Doce,Wind,9.0,-26.5839,-51.6876
1115,1115,BRA,LC,Eólio - Elétrica de Palmas,Wind,2.5,-26.5781,-51.7004
1116,1116,BRA,LC,F,Hydro,3.792,-20.1169,-43.8681
1117,1117,BRA,LC,Fagundes,Hydro,4.8,-22.2042,-43.0931
1118,1118,BRA,LC,Fany,Biomass,1.2,-22.3051,-51.2115
1119,1119,BRA,LC,Faria Lemos,Hydro,1.224,-20.7942,-42.0
1120,1120,BRA,LC,Farias,Hydro,1.35,-19.067,-42.8092
1121,1121,BRA,LC,Farol,Wind,20.0,-5.097,-36.0204
1122,1122,BRA,LC,Faxinal II,Hydro,30.0,-10.1622,-59.4578
1123,1123,BRA,LC,Faxinal dos Guedes,Hydro,4.0,-26.7636,-52.2183
1124,1124,BRA,LC,Faxinal l,Hydro,2.7880000000000003,-10.1648,-59.4466
1125,1125,BRA,LC,Fazenda Rosário,Wind,9.2,-30.4469,-50.3888
1126,1126,BRA,LC,Fazenda Rosário 2,Wind,23.0,-30.4398,-50.4053
1127,1127,BRA,LC,Fazenda Rosário 3,Wind,16.1,-30.4525,-50.4226
1128,1128,BRA,LC,Fazenda Velha,Hydro,16.5,-17.968,-51.7613
1129,1129,BRA,LC,Faísa I,Wind,29.4,-3.3218,-39.2671
1130,1130,BRA,LC,Faísa II,Wind,27.3,-3.3188,-39.2396
1131,1131,BRA,LC,Faísa III,Wind,25.2,-3.3478,-39.2652
1132,1132,BRA,LC,Faísa IV,Wind,25.2,-3.3221,-39.2671
1133,1133,BRA,LC,Faísa V,Wind,29.4,-3.3699,-39.2621
1134,1134,BRA,LC,Feixos,Hydro,1.3,-22.6975,-46.8512
1135,1135,BRA,LC,Ferradura,Hydro,9.2,-27.5594,-53.5767
1136,1136,BRA,LC,Ferrari,Biomass,80.5,-21.8411,-47.3514
1137,1137,BRA,LC,Ferreira Gomes,Hydro,252.0,0.852,-51.2
1138,1138,BRA,LC,Fibria - MS (Antiga VCP - MS),Biomass,163.20000000000002,-20.751,-51.678
1139,1139,BRA,LC,Figueira Indústria e Comércio,Biomass,4.4,-21.111,-50.2236
1140,1140,BRA,LC,Figueirópolis,Hydro,19.41,-15.3926,-58.6378
1141,1141,BRA,LC,Fischer,Biomass,5.0,-22.5136,-47.3723
1142,1142,BRA,LC,Fleixeiras I,Wind,30.004,-3.2011,-39.3647
1143,1143,BRA,LC,Flor do Mato,Hydro,4.8,-26.8481,-51.8794
1144,1144,BRA,LC,Flor do Sertão,Hydro,16.5,-26.7877,-53.3942
1145,1145,BRA,LC,Floraplac,Biomass,1.25,-3.1995,-47.5937
1146,1146,BRA,LC,Flórida Clean Power do Amapá,Biomass,1.7,0.0408,-51.1351
1147,1147,BRA,LC,Fontes I+II,Solar,10.0,-9.055,-38.12
1148,1148,BRA,LC,Fontes Nova,Hydro,130.3,-22.7031,-43.8814
1149,1149,BRA,LC,Forquilha,Hydro,1.0,-27.6667,-51.7333
1150,1150,BRA,LC,Foz do Chapecó,Hydro,855.0,-27.1417,-53.0397
1151,1151,BRA,LC,Foz do Rio Choró,Wind,25.2,-4.1256,-38.1503
1152,1152,BRA,LC,Franca Amaral,Hydro,4.5,-21.0537,-41.72
1153,1153,BRA,LC,Francisco Gross (Antiga Santa Fé),Hydro,29.0,-20.7,-41.5167
1154,1154,BRA,LC,França,Hydro,29.52,-23.9406,-47.1944
1155,1155,BRA,LC,Frascal,Hydro,2.2,-26.9564,-50.4889
1156,1156,BRA,LC,Frederico João Cerutti SA,Hydro,1.2,-27.5103,-53.4253
1157,1157,BRA,LC,Fronteira,Biomass,2.6,-20.2996,-49.1965
1158,1158,BRA,LC,Frutal,Biomass,16.092,-20.0803,-48.8124
1159,1159,BRA,LC,Fruteiras,Hydro,8.736,-20.7022,-41.0894
1160,1160,BRA,LC,Fumaça,Hydro,36.4,-24.0075,-47.2639
1161,1161,BRA,LC,Fumaça,Hydro,10.0,-20.45,-43.2667
1162,1162,BRA,LC,Fumaça IV,Hydro,4.5,-20.7492,-41.8761
1163,1163,BRA,LC,Fundão,Hydro,120.168,-25.7086,-51.9981
1164,1164,BRA,LC,Fundão I,Hydro,2.475,-25.7086,-51.9981
1165,1165,BRA,LC,Funil,Hydro,216.0,-22.5303,-44.5669
1166,1166,BRA,LC,Funil,Hydro,3.6,-20.4967,-43.4722
1167,1167,BRA,LC,Funil,Hydro,22.5,-19.0833,-42.85
1168,1168,BRA,LC,Funil,Hydro,180.0,-21.1436,-45.0372
1169,1169,BRA,LC,Funil,Hydro,30.0,-14.1833,-39.4667
1170,1170,BRA,LC,Furlan,Biomass,3.6,-22.7576,-47.4689
1171,1171,BRA,LC,Furlan Avaré,Biomass,30.0,-23.0459,-49.0334
1172,1172,BRA,LC,Furnas,Hydro,1216.0,-20.6471,-46.3286
1173,1173,BRA,LC,Furnas do Segredo,Hydro,9.8,-29.3653,-54.5039
1174,1174,BRA,LC,Furquim,Hydro,6.0,-20.3667,-43.2033
1175,1175,BRA,LC,G,Hydro,1.44,-20.1364,-43.8717
1176,1176,BRA,LC,Galheiros I,Hydro,12.06,-13.3934,-46.3906
1177,1177,BRA,LC,Galpões,Wind,8.0,-30.8807,-55.6765
1178,1178,BRA,LC,Galvani,Biomass,11.5,-22.7444,-47.1356
1179,1179,BRA,LC,Galópolis,Hydro,1.5,-29.2501,-51.1676
1180,1180,BRA,LC,Gameleira,Biomass,2.032,-10.6505,-51.4092
1181,1181,BRA,LC,Garganta da Jararaca,Hydro,29.3,-13.3906,-57.6242
1182,1182,BRA,LC,Gargaú,Wind,28.05,-21.5657,-41.0731
1183,1183,BRA,LC,Garibaldi,Hydro,191.9,-27.6217,-50.9882
1184,1184,BRA,LC,Gasa,Biomass,78.0,-20.7659,-51.2492
1185,1185,BRA,LC,Gavião Peixoto,Hydro,4.8,-21.85,-48.5167
1186,1186,BRA,LC,Generalco,Biomass,3.8,-20.5711,-50.3749
1187,1187,BRA,LC,Giasa II,Biomass,30.0,-7.3481,-35.0174
1188,1188,BRA,LC,Gindaí,Hydro,4.5,-8.6361,-35.2036
1189,1189,BRA,LC,Girassol,Hydro,1.0,-13.9969,-45.403
1190,1190,BRA,LC,Glória,Hydro,11.36,-21.0358,-42.3317
1191,1191,BRA,LC,Glória,Hydro,1.0,-16.0311,-55.3611
1192,1192,BRA,LC,Goiandira,Hydro,27.0,-18.2167,-48.25
1193,1193,BRA,LC,Goianésia,Biomass,7.3,-15.2112,-49.0874
1194,1194,BRA,LC,Goiasa,Biomass,46.52,-18.0668,-49.6613
1195,1195,BRA,LC,Governador Bento Munhoz da Rocha Neto (Foz do Areia),Hydro,1676.0,-26.0833,-51.65
1196,1196,BRA,LC,Governador Jayme Canet Júnior - GJC (Antiga Mauá),Hydro,363.138,-24.0622,-50.7064
1197,1197,BRA,LC,Governador José Richa (Salto Caxias),Hydro,1240.0,-25.5431,-53.4981
1198,1198,BRA,LC,Governador Ney Aminthas de Barros Braga (Segredo),Hydro,1260.0,-25.7833,-52.1333
1199,1199,BRA,LC,Governador Pedro Viriato Parigot de Souza (Capivari/Cachoeira),Hydro,260.0,-25.1386,-48.8738
1200,1200,BRA,LC,Gravatá Fruitrade,Wind,4.95,-8.2682,-35.5964
1201,1201,BRA,LC,Graça Brennand (Antiga Terra Santa),Hydro,27.4,-14.793,-57.9672
1202,1202,BRA,LC,Grizzo,Biomass,1.968,-22.2347,-48.4633
1203,1203,BRA,LC,Guaimbe,Solar,150.0,-21.91,-49.85
1204,1204,BRA,LC,Guajirú,Wind,30.004,-3.2632,-39.2159
1205,1205,BRA,LC,Guanambi,Wind,20.8,-14.2017,-42.6183
1206,1206,BRA,LC,Guaporé,Hydro,124.2,-15.1239,-58.9647
1207,1207,BRA,LC,Guarani,Biomass,9.4,-20.8171,-48.8132
1208,1208,BRA,LC,Guarani - Tanabi,Biomass,38.0,-20.5032,-49.5514
1209,1209,BRA,LC,Guarani Tanabi 2,Biomass,34.0,-20.4818,-49.5282
1210,1210,BRA,LC,Guaricana,Hydro,36.0,-25.7148,-48.9745
1211,1211,BRA,LC,Guariroba,Biomass,12.0,-20.1098,-49.7508
1212,1212,BRA,LC,Guarita,Hydro,1.76,-27.767,-53.56
1213,1213,BRA,LC,Guary,Hydro,5.4,-21.4914,-43.4544
1214,1214,BRA,LC,Guatapará,Waste,5.704,-21.3922,-47.9528
1215,1215,BRA,LC,Guaxuma,Biomass,14.312,-10.0817,-36.2231
1216,1216,BRA,LC,Guaçu,Biomass,30.0,-10.1811,-57.4505
1217,1217,BRA,LC,Guaíra Energética,Biomass,55.0,-20.4184,-48.2114
1218,1218,BRA,LC,Guilman Amorim,Hydro,140.04,-19.7083,-42.96
1219,1219,BRA,LC,Guimarania 1,Solar,30.0,-18.88,-46.74
1220,1220,BRA,LC,Guimarania 2,Solar,30.0,-18.88,-46.74
1221,1221,BRA,LC,Guirapá,Wind,28.8,-14.2189,-42.6414
1222,1222,BRA,LC,Gusa Nordeste,Biomass,10.0,-4.8888,-47.3775
1223,1223,BRA,LC,Henry Borden,Hydro,889.0,-23.8753,-46.4486
1224,1224,BRA,LC,Herval,Hydro,1.44,-29.5,-50.8333
1225,1225,BRA,LC,Horizonte,Solar,80.0,-12.705,-43.99
1226,1226,BRA,LC,Iacanga,Biomass,57.0,-21.7932,-49.0027
1227,1227,BRA,LC,Iaco Agrícola,Biomass,64.0,-18.7921,-52.8859
1228,1228,BRA,LC,Ibirama,Hydro,21.0,-27.0372,-49.5708
1229,1229,BRA,LC,Ibirapuitã I,Wind,25.2,-30.7709,-55.6629
1230,1230,BRA,LC,Ibitinga,Hydro,131.49,-21.7592,-48.9906
1231,1231,BRA,LC,Ibitiúva Bioenergética (Antiga Destilaria Andrade),Biomass,33.0,-21.0013,-48.2761
1232,1232,BRA,LC,Ibéria,Biomass,6.5200000000000005,-22.1616,-50.4744
1233,1233,BRA,LC,Icaraí,Wind,16.8,-3.0274,-39.6209
1234,1234,BRA,LC,Icaraí I,Wind,27.3,-3.0812,-39.5949
1235,1235,BRA,LC,Icaraí II,Wind,37.8,-3.066,-39.5969
1236,1236,BRA,LC,Igaporã,Wind,30.4,-13.8606,-42.6573
1237,1237,BRA,LC,Igarapava,Hydro,210.0,-19.9833,-47.75
1238,1238,BRA,LC,Iguatemi (Antiga Santa Terezinha - Iguatemi),Biomass,3.4,-23.3953,-52.0839
1239,1239,BRA,LC,Ijuizinho,Hydro,3.6,-28.365,-54.3743
1240,1240,BRA,LC,Ijuizinho,Hydro,1.0,-28.443,-54.2889
1241,1241,BRA,LC,Ilha Comprida,Hydro,20.16,-13.1975,-58.9839
1242,1242,BRA,LC,Ilha Grande,Wind,29.7,-3.0666,-39.7026
1243,1243,BRA,LC,Ilha Solteira,Hydro,3444.0,-20.3822,-51.3636
1244,1244,BRA,LC,Ilha da Luz,Hydro,3.8,-20.8342,-41.1225
1245,1245,BRA,LC,Ilha dos Pombos,Hydro,187.169,-21.85,-42.5833
1246,1246,BRA,LC,Ilhéus,Wind,11.2,-13.8823,-42.663
1247,1247,BRA,LC,Indaiazinho  (Antiga Indaiazinho Grande),Hydro,12.5,-19.2008,-52.3542
1248,1248,BRA,LC,Indaiá Grande,Hydro,19.998,-19.2836,-52.3983
1249,1249,BRA,LC,Indiavaí,Hydro,28.0,-15.255,-58.7164
1250,1250,BRA,LC,Indústria Agropalma,Biomass,2.7104000000000004,-2.9039,-48.7272
1251,1251,BRA,LC,Indústria Palmares,Biomass,1.64,-2.0315,-48.4021
1252,1252,BRA,LC,Inhambu,Wind,31.45,-14.3912,-42.5939
1253,1253,BRA,LC,Inhapim,Hydro,6.0,-19.5317,-42.1231
1254,1254,BRA,LC,Interlagos,Biomass,40.0,-20.5265,-51.2345
1255,1255,BRA,LC,Inxú,Hydro,20.6,-13.3669,-57.6175
1256,1256,BRA,LC,Iolando Leite,Biomass,8.0,-10.5586,-37.0292
1257,1257,BRA,LC,Ipaussu Bioenergia,Biomass,76.0,-23.0957,-49.5836
1258,1258,BRA,LC,Ipiranga - Mococa,Biomass,4.2,-21.3441,-47.1555
1259,1259,BRA,LC,Ipiranga Filial Descalvado,Biomass,3.025,-21.8278,-47.741
1260,1260,BRA,LC,Ipojuca,Biomass,11.2,-8.3892,-35.0821
1261,1261,BRA,LC,Ipê (Antiga Ceni),Biomass,25.0,-21.1004,-51.4821
1262,1262,BRA,LC,Iracema,Biomass,14.0,-22.5824,-47.5216
1263,1263,BRA,LC,Irani,Biomass,9.8,-26.9293,-51.7905
1264,1264,BRA,LC,Irapé,Hydro,399.0,-16.7381,-42.5747
1265,1265,BRA,LC,Irara,Hydro,30.0,-18.0833,-51.1667
1266,1266,BRA,LC,Isamu Ikeda,Hydro,29.064,-10.7008,-47.7939
1267,1267,BRA,LC,Itaenga,Biomass,47.0,-7.9058,-35.2847
1268,1268,BRA,LC,Itaguaçu,Hydro,14.0,-24.6933,-51.5192
1269,1269,BRA,LC,Itaipava,Hydro,3.88,-21.4167,-47.3333
1270,1270,BRA,LC,Itaipu (Parte Brasileira),Hydro,7000.0,-25.4269,-54.5931
1271,1271,BRA,LC,Itaiquara,Biomass,3.2,-21.4717,-46.7957
1272,1272,BRA,LC,Itajaí Biogás,Waste,1.065,-26.983,-48.7111
1273,1273,BRA,LC,Itamarati,Biomass,37.5,-14.7542,-57.1856
1274,1274,BRA,LC,Itapagipe,Biomass,6.0,-19.8893,-49.6895
1275,1275,BRA,LC,Itapebi,Hydro,456.0,-15.9403,-39.5206
1276,1276,BRA,LC,Itarema I,Wind,27.0,-2.9225,-39.8407
1277,1277,BRA,LC,Itarema II,Wind,27.0,-2.9211,-39.8617
1278,1278,BRA,LC,Itarema III,Wind,15.0,-2.9476,-39.8369
1279,1279,BRA,LC,Itarema IX,Wind,30.0,-2.9481,-39.9012
1280,1280,BRA,LC,Itarema V,Wind,21.0,-2.9665,-39.8795
1281,1281,BRA,LC,Itatinga,Hydro,15.0,-23.7519,-46.1394
1282,1282,BRA,LC,Itaúba,Hydro,500.4,-29.2607,-53.2359
1283,1283,BRA,LC,Itiquira (Casas de Forças  I e  II),Hydro,156.0,-17.0906,-54.8307
1284,1284,BRA,LC,Ituerê,Hydro,4.04,-21.3,-43.2167
1285,1285,BRA,LC,Ituiutaba,Biomass,56.0,-19.0114,-49.6619
1286,1286,BRA,LC,Itumbiara,Hydro,2080.5,-18.4213,-49.116
1287,1287,BRA,LC,Itumbiara,Biomass,56.0,-18.369,-49.2605
1288,1288,BRA,LC,Itupararanga,Hydro,56.17,-23.6125,-47.3969
1289,1289,BRA,LC,Itutinga,Hydro,52.0,-21.2913,-44.6224
1290,1290,BRA,LC,Ituverava,Solar,210.0,-12.594,-44.112
1291,1291,BRA,LC,Itá,Hydro,1450.0,-27.2767,-52.3822
1292,1292,BRA,LC,Ivan Botelho I (Antiga Ponte),Hydro,24.4,-21.4,-43.0167
1293,1293,BRA,LC,Ivan Botelho II (Antiga Palestina),Hydro,12.48,-21.35,-42.9667
1294,1294,BRA,LC,Ivan Botelho III (Antiga Triunfo),Hydro,24.4,-21.3,-42.9
1295,1295,BRA,LC,J. L. G.,Biomass,1.6,-21.5285,-48.3655
1296,1296,BRA,LC,J. Pilon,Biomass,3.8,-23.1575,-47.7737
1297,1297,BRA,LC,JB,Biomass,33.2,-8.2239,-35.2718
1298,1298,BRA,LC,Jacarezinho,Biomass,4.6000000000000005,-23.0895,-49.9321
1299,1299,BRA,LC,Jacaré Pepira,Hydro,2.0,-22.425,-48.02
1300,1300,BRA,LC,Jaciara,Biomass,2.8000000000000003,-15.9222,-55.2163
1301,1301,BRA,LC,Jacuí,Hydro,180.0,-29.0735,-53.209
1302,1302,BRA,LC,Jaguara,Hydro,424.0,-20.0231,-47.4344
1303,1303,BRA,LC,Jaguari,Hydro,27.6,-23.195,-46.0278
1304,1304,BRA,LC,Jaguari,Hydro,11.8,-22.8167,-46.9
1305,1305,BRA,LC,Jalles Machado,Biomass,50.0,-15.2071,-48.9758
1306,1306,BRA,LC,Jamari,Hydro,20.0,-9.9537,-63.0917
1307,1307,BRA,LC,Japungu,Biomass,28.8,-6.9869,-35.0143
1308,1308,BRA,LC,Jararaca,Hydro,28.0,-28.9361,-51.4648
1309,1309,BRA,LC,Jari Celulose,Biomass,55.0,-0.9196,-52.4258
1310,1310,BRA,LC,Jataí,Biomass,105.0,-17.6918,-51.6155
1311,1311,BRA,LC,Jataí,Hydro,30.0,-17.8933,-51.7233
1312,1312,BRA,LC,Jauru,Hydro,121.5,-15.2356,-58.7278
1313,1313,BRA,LC,Jirau,Hydro,3750.0,-9.2664,-64.6478
1314,1314,BRA,LC,Joana,Wind,28.2,-13.918,-42.6204
1315,1315,BRA,LC,Jorda Flor,Hydro,1.55,-23.8133,-47.6731
1316,1316,BRA,LC,José Barasuol (Antiga Linha 3 Leste),Hydro,14.335,-28.2931,-53.8742
1317,1317,BRA,LC,José Bonifácio,Biomass,19.0,-21.082,-49.912
1318,1318,BRA,LC,João Baptista de Lima Figueiredo,Hydro,3.5,-21.5828,-46.7467
1319,1319,BRA,LC,João Borges,Hydro,18.99,-27.7178,-50.6569
1320,1320,BRA,LC,João Camilo Penna (Antiga Cachoeira do Emboque),Hydro,22.02,-20.12,-42.3939
1321,1321,BRA,LC,João Franco,Hydro,1.0,-21.8344,-46.0919
1322,1322,BRA,LC,João Neiva,Biomass,3.5,-19.754,-40.3765
1323,1323,BRA,LC,João de Deus,Hydro,1.548,-19.6397,-45.1092
1324,1324,BRA,LC,Juba I,Hydro,42.0,-14.7483,-58.0739
1325,1325,BRA,LC,Juba II,Hydro,42.0,-14.7561,-58.0231
1326,1326,BRA,LC,Jucazinho,Hydro,1.0,-8.006,-35.6969
1327,1327,BRA,LC,Jucu,Hydro,4.84,-20.3953,-40.5708
1328,1328,BRA,LC,Juliões,Hydro,3.4,-20.4705,-44.2464
1329,1329,BRA,LC,Junco Novo,Biomass,1.2,-10.5573,-37.0301
1330,1330,BRA,LC,Junqueira,Biomass,7.2,-19.9841,-47.7887
1331,1331,BRA,LC,Jupiá (Eng° Souza Dias),Hydro,1551.2,-20.7758,-51.6267
1332,1332,BRA,LC,Juremas,Wind,16.1,-5.3898,-35.8463
1333,1333,BRA,LC,Jurumirim (Armando Avellanal Laydner),Hydro,100.956,-23.2094,-49.23
1334,1334,BRA,LC,Jurupará,Hydro,7.2,-23.9622,-47.39
1335,1335,BRA,LC,Juína,Hydro,2.648,-11.3033,-59.2236
1336,1336,BRA,LC,Kiarroz,Biomass,1.2,-28.6338,-49.2327
1337,1337,BRA,LC,Klabin Celulose,Biomass,330.0,-24.2436,-50.7414
1338,1338,BRA,LC,Klabin Correia Pinto (Antiga Celucat),Biomass,37.882,-27.5585,-50.303
1339,1339,BRA,LC,LDC Bioenergia Lagoa da Prata (Antiga Louis Dreyfus Lagoa da Prata),Biomass,85.0,-20.0709,-45.5429
1340,1340,BRA,LC,LDC Bioenergia Leme (Antiga Coinbra - Cresciumal),Biomass,39.6,-22.1575,-47.2496
1341,1341,BRA,LC,LDC Bioenergia Rio Brilhante (Antiga Louis Dreyfus Rio Brilhante),Biomass,90.0,-21.5139,-54.7018
1342,1342,BRA,LC,Lageado,Hydro,1.776,-9.8394,-48.2919
1343,1343,BRA,LC,Lago Azul,Biomass,2.0,-17.2536,-47.6785
1344,1344,BRA,LC,Lago Azul,Hydro,3.992,-17.2799,-47.5251
1345,1345,BRA,LC,Lagoa Grande,Hydro,25.6,-12.1525,-46.8177
1346,1346,BRA,LC,Lagoa do Mato,Wind,3.23,-4.5891,-37.6377
1347,1347,BRA,LC,Lajeado,Hydro,8.838000000000001,-19.0572,-52.5308
1348,1348,BRA,LC,Lajeado do Posto,Hydro,1.0,-26.5439,-52.3694
1349,1349,BRA,LC,Lajes,Hydro,2.07,-6.7819,-48.1508
1350,1350,BRA,LC,Lambedor,Hydro,1.0008,-27.1456,-52.8392
1351,1351,BRA,LC,Laminados Triunfo,Biomass,1.5,-10.0085,-67.7578
1352,1352,BRA,LC,Lanchinha,Wind,28.0,-6.1236,-36.7025
1353,1353,BRA,LC,Laranjeiras,Biomass,4.825,-7.6571,-35.3309
1354,1354,BRA,LC,Lavrinhas,Hydro,30.0,-22.5667,-44.8631
1355,1355,BRA,LC,Lençóis,Hydro,1.68,-22.5167,-48.65
1356,1356,BRA,LC,Licínio de Almeida,Wind,24.0,-14.1769,-42.6541
1357,1357,BRA,LC,Limeira,Hydro,1.26,-21.0142,-42.461
1358,1358,BRA,LC,Limoeiro,Hydro,1.25,-22.5781,-46.4194
1359,1359,BRA,LC,Limoeiro (Armando Salles de Oliveira),Hydro,32.0,-21.6253,-47.0094
1360,1360,BRA,LC,Linha Emília,Hydro,19.5,-28.9333,-51.7667
1361,1361,BRA,LC,Linha Granja Velha,Hydro,1.0,-27.4275,-53.5408
1362,1362,BRA,LC,Lobo,Hydro,2.0,-22.1615,-47.9011
1363,1363,BRA,LC,Londra,Biomass,3.88,-23.5243,-48.9287
1364,1364,BRA,LC,Louis Dreyfus Commodities Agroindustrial,Biomass,4.0,-23.6461,-46.6386
1365,1365,BRA,LC,Lucélia,Biomass,15.7,-21.5649,-50.9594
1366,1366,BRA,LC,Ludesa,Hydro,30.0,-26.5778,-52.4961
1367,1367,BRA,LC,Luiz Dias,Hydro,1.62,-22.3688,-45.3516
1368,1368,BRA,LC,Luiz Dias Lins (Antiga Manopla),Hydro,5.751,-8.6514,-35.2175
1369,1369,BRA,LC,Luiz Gonzaga (Itaparica),Hydro,1479.6,-9.144,-38.3134
1370,1370,BRA,LC,Luiz Queiroz,Hydro,2.88,-22.7169,-47.6517
1371,1371,BRA,LC,Luís Eduardo Magalhães (Lajeado),Hydro,902.5,-9.7572,-48.3714
1372,1372,BRA,LC,Lwarcel,Biomass,4.0,-22.6721,-48.8156
1373,1373,BRA,LC,Lwarcel (Antiga Lençóis Paulista),Biomass,38.0,-22.5402,-48.7994
1374,1374,BRA,LC,MAX-01 (Nova Lacerda),Hydro,2.5,-14.4178,-59.5236
1375,1375,BRA,LC,MB,Biomass,16.4,-20.7787,-48.1919
1376,1376,BRA,LC,Macabu,Hydro,21.0,-22.125,-41.8333
1377,1377,BRA,LC,Macaco Branco,Hydro,2.363,-22.7906,-46.8972
1378,1378,BRA,LC,Macacos,Wind,20.7,-5.412,-35.8483
1379,1379,BRA,LC,Macambira I,Wind,18.0,-6.0463,-36.5551
1380,1380,BRA,LC,Macambira II,Wind,18.0,-6.0863,-36.5312
1381,1381,BRA,LC,Macau,Wind,1.8,-5.0883,-36.5578
1382,1382,BRA,LC,Macaúbas,Wind,35.07,-12.3512,-42.3385
1383,1383,BRA,LC,Machadinho,Hydro,1140.0,-27.5278,-51.7903
1384,1384,BRA,LC,Machado Mineiro,Hydro,1.72,-15.5225,-41.5111
1385,1385,BRA,LC,Madame Denise (Cachoeira do Furado),Hydro,2.88,-19.6428,-43.6911
1386,1386,BRA,LC,Madecal,Biomass,3.2,-26.7717,-51.0044
1387,1387,BRA,LC,Mafrás,Hydro,4.0,-27.0367,-49.575
1388,1388,BRA,LC,Malagone,Hydro,19.0,-18.6806,-48.4908
1389,1389,BRA,LC,Malhadinha 1,Wind,23.1,-3.9466,-41.123
1390,1390,BRA,LC,Mambaí II,Hydro,12.0,-14.6828,-46.2961
1391,1391,BRA,LC,Manacá,Biomass,5.0,-18.3495,-49.4084
1392,1392,BRA,LC,Mandacaru,Wind,4.95,-8.279,-35.5964
1393,1393,BRA,LC,Mandu,Biomass,90.0,-20.479,-48.4015
1394,1394,BRA,LC,Mangue Seco 1,Wind,26.0,-5.174,-36.3024
1395,1395,BRA,LC,Mangue Seco 2,Wind,26.0,-5.1659,-36.3193
1396,1396,BRA,LC,Mangue Seco 3,Wind,26.0,-5.1856,-36.3603
1397,1397,BRA,LC,Mangue Seco 5,Wind,26.0,-5.1673,-36.4068
1398,1398,BRA,LC,Manso,Hydro,210.9,-14.8744,-55.7858
1399,1399,BRA,LC,Mar e Terra,Wind,23.1,-4.964,-36.9147
1400,1400,BRA,LC,Maracajú,Biomass,7.4,-21.3488,-55.4292
1401,1401,BRA,LC,Maracanã,Hydro,10.5,-14.3389,-57.6192
1402,1402,BRA,LC,Maracaí,Biomass,46.82,-22.5711,-50.6442
1403,1403,BRA,LC,Maravilha,Hydro,1.0,-21.9897,-42.2972
1404,1404,BRA,LC,Marco Baldo,Hydro,16.55,-27.57,-53.7858
1405,1405,BRA,LC,Marechal Mascarenhas de Moraes (Antiga Peixoto),Hydro,492.1,-20.2878,-47.0661
1406,1406,BRA,LC,Marimbondo,Hydro,1440.0,-20.3011,-49.1967
1407,1407,BRA,LC,Mario Fett (Antiga Rio do Peixe),Hydro,1.71,-27.2072,-51.5117
1408,1408,BRA,LC,Marituba,Biomass,20.5,-10.1446,-36.5339
1409,1409,BRA,LC,Maron,Wind,30.24,-14.1337,-42.6024
1410,1410,BRA,LC,Martins,Biomass,2.0,-9.464,-59.6949
1411,1411,BRA,LC,Martinuv,Hydro,1.84,-12.8217,-60.2958
1412,1412,BRA,LC,Mascarenhas,Hydro,189.0,-19.5005,-40.9185
1413,1413,BRA,LC,Mata Cobra,Hydro,2.88,-28.0978,-53.0142
1414,1414,BRA,LC,Mata Velha,Hydro,24.0,-16.2,-47.1667
1415,1415,BRA,LC,Mataraca,Wind,4.8,-6.5823,-34.9785
1416,1416,BRA,LC,Mel 02,Wind,20.0,-4.9467,-36.9641
1417,1417,BRA,LC,Melissa,Hydro,1.0,-24.6,-53.2333
1418,1418,BRA,LC,Mello,Hydro,9.54,-22.0392,-43.7683
1419,1419,BRA,LC,Meridiano,Biomass,60.0,-20.4503,-50.1965
1420,1420,BRA,LC,Mestre,Hydro,2.0,-15.9781,-55.3594
1421,1421,BRA,LC,Miassaba 3,Wind,68.47,-5.1278,-36.4536
1422,1422,BRA,LC,Miassaba II,Wind,14.4,-5.0826,-36.4074
1423,1423,BRA,LC,Miguel Forte,Biomass,16.0,-26.253,-51.0903
1424,1424,BRA,LC,Millennium,Wind,10.2,-6.4939,-34.9719
1425,1425,BRA,LC,Minuano I,Wind,22.0,-33.7228,-53.399
1426,1426,BRA,LC,Minuano II,Wind,24.0,-33.7174,-53.4167
1427,1427,BRA,LC,Miradouro,Hydro,1.26,-20.865,-42.355
1428,1428,BRA,LC,Miranda,Hydro,408.0,-18.9122,-48.0414
1429,1429,BRA,LC,Miranda Estância,Hydro,1.94,-13.5542,-59.9353
1430,1430,BRA,LC,Miriri,Biomass,11.7,-6.9447,-35.1299
1431,1431,BRA,LC,Modelo I,Wind,30.55,-5.4308,-35.8931
1432,1432,BRA,LC,Modelo II,Wind,25.85,-5.4144,-35.9001
1433,1433,BRA,LC,Moema,Biomass,89.0,-20.2312,-49.3503
1434,1434,BRA,LC,Mogi-Guaçu,Hydro,7.2,-22.3669,-46.9
1435,1435,BRA,LC,Mogiana Bio-Energia,Biomass,4.0,-20.4724,-47.8749
1436,1436,BRA,LC,Moinho,Hydro,3.7,-24.4181,-54.0271
1437,1437,BRA,LC,Moinho,Hydro,13.7,-27.7539,-51.3122
1438,1438,BRA,LC,Monjolinho (Antiga Alzir dos Santos Antunes),Hydro,74.0,-27.3456,-52.7311
1439,1439,BRA,LC,Monte Alto,Hydro,7.36,-20.775,-46.725
1440,1440,BRA,LC,Monte Belo,Hydro,4.8,-11.9319,-62.1828
1441,1441,BRA,LC,Monte Claro,Hydro,130.0,-29.0303,-51.5206
1442,1442,BRA,LC,Monte Serrat,Hydro,25.0,-22.0197,-43.3022
1443,1443,BRA,LC,Monterrey,Biomass,3.5,-21.2063,-49.7316
1444,1444,BRA,LC,Monteverde,Biomass,20.0,-22.2916,-55.0938
1445,1445,BRA,LC,Monções,Biomass,20.0,-20.8512,-50.0799
1446,1446,BRA,LC,Moreno,Biomass,5.5200000000000005,-21.4779,-47.7607
1447,1447,BRA,LC,Morrinhos,Hydro,2.25,-30.3176,-51.8654
1448,1448,BRA,LC,Morro Branco I,Wind,32.9,-9.8497,-41.0565
1449,1449,BRA,LC,Morro dos Ventos I,Wind,28.8,-5.3628,-35.819
1450,1450,BRA,LC,Morro dos Ventos II,Wind,29.16,-5.3601,-35.8355
1451,1451,BRA,LC,Morro dos Ventos III,Wind,28.8,-5.3744,-35.8683
1452,1452,BRA,LC,Morro dos Ventos IV,Wind,28.8,-5.382,-35.8809
1453,1453,BRA,LC,Morro dos Ventos IX,Wind,30.0,-5.3055,-35.9132
1454,1454,BRA,LC,Morro dos Ventos VI,Wind,28.8,-5.3437,-35.8783
1455,1455,BRA,LC,Morrão,Wind,30.24,-14.0885,-42.6827
1456,1456,BRA,LC,Mosquitão,Hydro,30.0,-16.3419,-51.4375
1457,1457,BRA,LC,Mucuri,Hydro,19.1,-17.5833,-40.9833
1458,1458,BRA,LC,Mucuripe,Wind,2.4,-3.7053,-38.4711
1459,1459,BRA,LC,Mumbuca,Biomass,1.52,-22.6597,-50.2072
1460,1460,BRA,LC,Mundaú,Wind,30.004,-3.1936,-39.3746
1461,1461,BRA,LC,Mundial,Biomass,4.65,-21.194,-51.2062
1462,1462,BRA,LC,Muniz Freire,Hydro,25.0,-20.4667,-41.4667
1463,1463,BRA,LC,Mussambê,Wind,32.9,-9.8628,-41.0834
1464,1464,BRA,LC,Müller Destilaria,Biomass,2.18,-21.9143,-47.498
1465,1465,BRA,LC,N O Bioenergia,Biomass,18.0,-22.3462,-47.3239
1466,1466,BRA,LC,NG Bioenergia I,Biomass,33.0,-16.9647,-50.4381
1467,1467,BRA,LC,Nardini,Biomass,54.0,-21.1815,-48.6447
1468,1468,BRA,LC,Natureza Limpa,Biomass,1.0,-16.354,-46.8965
1469,1469,BRA,LC,Nilo Peçanha,Hydro,378.42,-22.6833,-43.8739
1470,1470,BRA,LC,Ninho da Águia,Hydro,10.0,-22.5,-45.3333
1471,1471,BRA,LC,Noble Energia,Biomass,30.0,-20.581,-49.9424
1472,1472,BRA,LC,Noble Energia II,Biomass,30.0,-20.4503,-50.197
1473,1473,BRA,LC,Nobrecel,Biomass,3.2,-22.92,-45.4525
1474,1474,BRA,LC,Noidore,Hydro,1.0,-14.8633,-53.29
1475,1475,BRA,LC,Noroeste Paulista,Biomass,60.0,-20.581,-49.9424
1476,1476,BRA,LC,Nortao,Biomass,1.275,-10.189,-59.4345
1477,1477,BRA,LC,Nossa Senhora da Conceição,Wind,28.8,-13.8957,-42.6769
1478,1478,BRA,LC,Nova Aurora,Hydro,21.0,-18.1428,-48.27
1479,1479,BRA,LC,Nova Aurora,Solar,3.06823,-28.448,-48.9749
1480,1480,BRA,LC,Nova Avanhandava (Rui Barbosa),Hydro,347.40000000000003,-21.1189,-50.2011
1481,1481,BRA,LC,Nova Fátima,Hydro,4.1,-28.0411,-49.13
1482,1482,BRA,LC,Nova Geração,Biomass,6.2,-17.2743,-50.1395
1483,1483,BRA,LC,Nova Maurício,Hydro,29.232,-21.4667,-42.85
1484,1484,BRA,LC,Nova Moreno,Biomass,15.504,-20.8238,-49.7558
1485,1485,BRA,LC,Nova Mutum,Hydro,14.0,-13.5903,-56.2171
1486,1486,BRA,LC,Nova Olinda,Solar,210.0,-8.213,-42.545
1487,1487,BRA,LC,Nova Ponte,Hydro,510.0,-19.1331,-47.6936
1488,1488,BRA,LC,Nova Tamoio,Biomass,3.6,-21.9082,-48.1044
1489,1489,BRA,LC,Novo Colorado,Hydro,2.99999,-13.9848,-57.067
1490,1490,BRA,LC,Novo Horizonte,Hydro,23.0,-25.0114,-48.6222
1491,1491,BRA,LC,Novo Horizonte,Wind,30.06,-12.3127,-42.351
1492,1492,BRA,LC,Oliveira,Hydro,2.88,-20.7667,-44.6833
1493,1493,BRA,LC,Ombreiras,Hydro,26.0,-15.1,-58.7333
1494,1494,BRA,LC,Oriental,Hydro,1.25,-9.0004,-36.1129
1495,1495,BRA,LC,Ormeo Junqueira Botelho (Antiga Cachoeira Encoberta),Hydro,22.7,-21.0897,-42.3425
1496,1496,BRA,LC,Osório 2,Wind,27.6,-29.9445,-50.2516
1497,1497,BRA,LC,Osório 3,Wind,26.0,-29.9815,-50.2549
1498,1498,BRA,LC,Ourinhos,Hydro,44.4,-23.0684,-49.8381
1499,1499,BRA,LC,Ouro,Hydro,16.0,-27.6367,-51.49
1500,1500,BRA,LC,Ouro Verde,Wind,29.7,-3.2792,-39.3061
1501,1501,BRA,LC,Ouroeste,Biomass,12.0,-19.9962,-50.3726
1502,1502,BRA,LC,PAM Destilaria,Biomass,1.2,-17.1692,-46.8747
1503,1503,BRA,LC,PCT SLC Alimentos,Biomass,5.8,-31.7455,-52.4246
1504,1504,BRA,LC,Pacheco,Hydro,2.0,-26.5845,-52.1836
1505,1505,BRA,LC,Padre Carlos (Antiga Rolador),Hydro,7.8,-21.7481,-46.5756
1506,1506,BRA,LC,Paes Leme,Hydro,1.92,-22.1844,-44.2669
1507,1507,BRA,LC,Pai Joaquim,Hydro,23.0,-19.5,-47.5167
1508,1508,BRA,LC,Paina II,Hydro,1.2,-24.8919,-49.5936
1509,1509,BRA,LC,Paineiras,Biomass,3.2,-20.9508,-40.9427
1510,1510,BRA,LC,Paiol,Hydro,20.0,-18.5992,-41.8478
1511,1511,BRA,LC,Pajeú do Vento,Wind,25.6,-14.0147,-42.6339
1512,1512,BRA,LC,Palanquinho,Hydro,24.165,-28.9039,-50.8119
1513,1513,BRA,LC,Palheiros,Hydro,1.84,-27.5979,-49.74
1514,1514,BRA,LC,Palmeiras,Hydro,24.602,-26.6667,-49.3333
1515,1515,BRA,LC,Palmeiras,Hydro,16.5,-20.548,-47.8136
1516,1516,BRA,LC,Pampeana,Hydro,27.99,-14.8301,-57.9116
1517,1517,BRA,LC,Pandeiros,Hydro,4.2,-15.5031,-44.7558
1518,1518,BRA,LC,Panorâmica,Biomass,3.7,-23.4957,-49.0289
1519,1519,BRA,LC,Pantanal,Biomass,5.0,-15.9213,-55.215
1520,1520,BRA,LC,Paracambi,Hydro,25.0,-22.6833,-43.7667
1521,1521,BRA,LC,Paracatu,Solar,120.0,-17.34,-47.25
1522,1522,BRA,LC,Paraibuna,Hydro,87.02,-23.41,-45.6006
1523,1523,BRA,LC,Paranapanema,Biomass,60.0,-22.5463,-51.8189
1524,1524,BRA,LC,Paranapanema,Hydro,31.5,-23.1869,-49.3839
1525,1525,BRA,LC,Paranatinga II,Hydro,29.02,-13.8517,-53.2558
1526,1526,BRA,LC,Paraíso I,Hydro,21.6,-19.0,-53.0
1527,1527,BRA,LC,Paraúna,Hydro,4.28,-18.6381,-43.9647
1528,1528,BRA,LC,Pardo,Hydro,1.25,-21.9042,-46.2681
1529,1529,BRA,LC,Pardos,Hydro,10.0,-26.4458,-50.9878
1530,1530,BRA,LC,Parecis,Hydro,15.4,-13.0742,-58.9754
1531,1531,BRA,LC,Parque Eólico Cabeço Preto,Wind,19.8,-5.4187,-35.954
1532,1532,BRA,LC,Parque Eólico Cabeço Preto III,Wind,26.0,-5.401,-35.9843
1533,1533,BRA,LC,Parque Eólico Cabeço Preto IV,Wind,19.8,-5.4484,-35.9561
1534,1534,BRA,LC,Parque Eólico Cabeço Preto V,Wind,26.0,-5.4799,-36.0044
1535,1535,BRA,LC,Parque Eólico Cabeço Preto VI,Wind,18.0,-5.4521,-35.9519
1536,1536,BRA,LC,Parque Eólico Elebrás Cidreira 1,Wind,70.0,-30.0791,-50.1721
1537,1537,BRA,LC,Parque Eólico Sangradouro,Wind,50.0,-29.9324,-50.2984
1538,1538,BRA,LC,Parque Eólico de Beberibe,Wind,25.6,-4.1936,-38.0766
1539,1539,BRA,LC,Parque Eólico de Osório,Wind,50.0,-29.9631,-50.2826
1540,1540,BRA,LC,Parque Eólico de Palmares,Wind,9.2,-30.458,-50.3906
1541,1541,BRA,LC,Parque Eólico do Horizonte,Wind,4.8,-26.6,-52.7167
1542,1542,BRA,LC,Parque Eólico dos Índios,Wind,50.0,-29.9915,-50.288
1543,1543,BRA,LC,Parque Eólico dos Índios 2,Wind,29.9,-30.0194,-50.3362
1544,1544,BRA,LC,Parque Eólico dos Índios 3,Wind,23.0,-29.9831,-50.3324
1545,1545,BRA,LC,Passa Tempo,Biomass,73.8,-21.724,-54.4916
1546,1546,BRA,LC,Passo Ferraz,Hydro,4.0,-26.7546,-52.3838
1547,1547,BRA,LC,Passo Fundo,Hydro,226.0,-27.55,-52.7333
1548,1548,BRA,LC,Passo Real,Hydro,158.0,-29.0167,-53.1833
1549,1549,BRA,LC,Passo São João,Hydro,77.0,-28.1394,-55.0478
1550,1550,BRA,LC,Passo de Ajuricaba,Hydro,3.2,-28.2825,-53.8097
1551,1551,BRA,LC,Passo do Inferno,Hydro,1.332,-29.2833,-50.75
1552,1552,BRA,LC,Passo do Meio,Hydro,30.0,-28.8,-50.6
1553,1553,BRA,LC,Passos,Biomass,14.09,-20.5444,-46.6461
1554,1554,BRA,LC,Pau D´Alho,Biomass,4.16,-22.7681,-50.1118
1555,1555,BRA,LC,Pau Ferro,Wind,30.55,-9.0625,-38.1186
1556,1556,BRA,LC,Pau Sangue,Hydro,1.224,-8.5922,-35.3914
1557,1557,BRA,LC,Paulicéia,Biomass,33.75,-21.2789,-51.7723
1558,1558,BRA,LC,Paulo Afonso I,Hydro,180.001,-9.3984,-38.2026
1559,1559,BRA,LC,Paulo Afonso II,Hydro,443.0,-9.3984,-38.2026
1560,1560,BRA,LC,Paulo Afonso III,Hydro,794.2,-9.3984,-38.2026
1561,1561,BRA,LC,Paulo Afonso IV,Hydro,2462.4,-9.4132,-38.2106
1562,1562,BRA,LC,Paulo Mascarenhas,Hydro,1.0,-20.24,-42.91
1563,1563,BRA,LC,Paísa,Biomass,4.8,-10.288,-36.4903
1564,1564,BRA,LC,Pederneiras,Biomass,2.4,-22.9696,-47.7851
1565,1565,BRA,LC,Pedra,Hydro,20.007,-13.8688,-40.2351
1566,1566,BRA,LC,Pedra Branca,Wind,30.0,-9.8746,-41.0957
1567,1567,BRA,LC,Pedra Furada,Hydro,6.5,-8.5164,-35.4839
1568,1568,BRA,LC,Pedra Preta,Wind,20.7,-5.4268,-35.8534
1569,1569,BRA,LC,Pedra do Cavalo,Hydro,162.0,-12.5852,-38.9986
1570,1570,BRA,LC,Pedra do Garrafão,Hydro,19.0,-21.1986,-41.3764
1571,1571,BRA,LC,Pedra do Gerônimo,Wind,30.55,-9.0672,-38.1448
1572,1572,BRA,LC,Pedra do Reino,Wind,30.0,-9.5175,-40.8864
1573,1573,BRA,LC,Pedra do Reino III,Wind,18.0,-9.4986,-40.879
1574,1574,BRA,LC,Pedra do Sal,Wind,18.0,-2.8262,-41.7071
1575,1575,BRA,LC,Pedrinho I,Hydro,16.04,-24.7875,-51.43
1576,1576,BRA,LC,Pedro Affonso Junqueira (Antiga Antas I),Hydro,8.86,-21.75,-46.6
1577,1577,BRA,LC,Pedro Afonso,Biomass,80.0,-9.1941,-48.1335
1578,1578,BRA,LC,Peixe,Hydro,1.0,-22.6083,-46.4417
1579,1579,BRA,LC,Peixe Angical,Hydro,498.75,-12.2391,-48.3824
1580,1580,BRA,LC,Pelado,Wind,20.0,-6.0135,-36.4343
1581,1581,BRA,LC,Pelourinho,Wind,21.84,-14.5292,-42.5867
1582,1582,BRA,LC,Pequi,Hydro,6.0,-16.0033,-55.1153
1583,1583,BRA,LC,Pereira Passos,Hydro,99.11,-22.6864,-43.8253
1584,1584,BRA,LC,Perobálcool,Biomass,2.4,-23.9052,-53.463
1585,1585,BRA,LC,Pery,Hydro,30.0,-27.4578,-50.6406
1586,1586,BRA,LC,Pesqueiro,Hydro,12.44,-24.1328,-49.6358
1587,1587,BRA,LC,Peti,Hydro,9.4,-19.8814,-43.3678
1588,1588,BRA,LC,Petribu,Biomass,36.5,-7.9058,-35.2847
1589,1589,BRA,LC,Petropolitana,Hydro,1.0,-22.4756,-43.1544
1590,1590,BRA,LC,Pezzi,Hydro,19.0,-28.7912,-50.5643
1591,1591,BRA,LC,Piabanha,Hydro,9.0,-22.2022,-43.1553
1592,1592,BRA,LC,Picada,Hydro,50.0,-21.8849,-43.5408
1593,1593,BRA,LC,Picada 48,Hydro,1.4014000000000002,-29.5833,-51.1278
1594,1594,BRA,LC,Piedade,Hydro,21.69,-18.6889,-49.0089
1595,1595,BRA,LC,Pilar,Hydro,1.3,-23.8359,-47.6565
1596,1596,BRA,LC,Pilões,Wind,30.24,-14.0292,-42.6161
1597,1597,BRA,LC,Pindaí,Wind,24.0,-14.2021,-42.6589
1598,1598,BRA,LC,Pindorama,Biomass,4.0,-10.1561,-36.3391
1599,1599,BRA,LC,Pinhal,Hydro,6.8,-22.2833,-46.7833
1600,1600,BRA,LC,Pinho Fleck,Hydro,1.279,-26.2439,-52.4381
1601,1601,BRA,LC,Pioneiros,Biomass,42.0,-20.7255,-50.9526
1602,1602,BRA,LC,Pioneiros II,Biomass,35.0,-20.7263,-50.9525
1603,1603,BRA,LC,Pipoca,Hydro,20.0,-19.75,-41.7667
1604,1604,BRA,LC,Piracicaba (Antiga Boyes),Hydro,1.12,-22.7083,-47.6333
1605,1605,BRA,LC,Pirajú,Hydro,81.0,-23.1544,-49.38
1606,1606,BRA,LC,Piranhas,Hydro,18.05,-16.5833,-51.8167
1607,1607,BRA,LC,Pirapama,Biomass,25.0,-8.224,-35.272
1608,1608,BRA,LC,Pirapanema,Hydro,1.26,-21.0172,-42.4408
1609,1609,BRA,LC,Pirapetinga,Hydro,20.0,-21.1208,-41.72
1610,1610,BRA,LC,Pirapora,Hydro,25.024,-23.383,-46.983
1611,1611,BRA,LC,Pirapora I,Solar,150.0,-17.416,-44.92
1612,1612,BRA,LC,Pirapora II,Solar,115.0,-17.4,-44.88
1613,1613,BRA,LC,Pirapora III,Solar,72.0,-17.4,-44.88
1614,1614,BRA,LC,Pirauá,Wind,4.95,-7.4953,-35.4955
1615,1615,BRA,LC,Piraí,Biomass,9.0,-24.522,-49.9395
1616,1616,BRA,LC,Pitangas,Hydro,1.25,-19.08,-42.685
1617,1617,BRA,LC,Pitinga,Hydro,24.96,-0.8664,-59.6047
1618,1618,BRA,LC,Pito,Hydro,4.0,-27.5801,-51.3543
1619,1619,BRA,LC,Pizzatto,Biomass,2.0,-26.424,-51.3065
1620,1620,BRA,LC,Planaltina,Wind,27.2,-13.9879,-42.6389
1621,1621,BRA,LC,Planalto,Hydro,17.0,-18.7833,-52.3833
1622,1622,BRA,LC,Plano Alto,Hydro,16.0,-26.9578,-52.3404
1623,1623,BRA,LC,Plantar,Biomass,5.0,-19.4299,-44.325
1624,1624,BRA,LC,Pontal 2 A,Wind,21.6,-30.2648,-50.7834
1625,1625,BRA,LC,Pontal 2 B,Wind,11.2,-30.2779,-50.7978
1626,1626,BRA,LC,Pontal 3 B,Wind,27.0,-30.2561,-50.7661
1627,1627,BRA,LC,Pontal do Prata,Hydro,13.774,-18.7414,-52.2867
1628,1628,BRA,LC,Ponte Alta,Hydro,13.0,-19.4103,-54.4931
1629,1629,BRA,LC,Ponte de Pedra,Hydro,176.1,-17.6103,-54.8269
1630,1630,BRA,LC,Porto Alegre,Biomass,2.4,-8.9378,-35.7506
1631,1631,BRA,LC,Porto Colômbia,Hydro,319.2,-20.1242,-48.5719
1632,1632,BRA,LC,Porto Estrela,Hydro,112.0,-19.1167,-42.6592
1633,1633,BRA,LC,Porto Franco,Hydro,30.0,-11.8142,-46.7831
1634,1634,BRA,LC,Porto Góes,Hydro,24.8,-23.2092,-47.2964
1635,1635,BRA,LC,Porto Primavera (Eng° Sérgio Motta),Hydro,1540.0,-22.478,-52.9561
1636,1636,BRA,LC,Porto Raso,Hydro,28.4,-24.0625,-47.4158
1637,1637,BRA,LC,Porto Salgado,Wind,20.0,-2.8398,-41.727
1638,1638,BRA,LC,Porto Seguro,Wind,6.4,-13.8629,-42.6727
1639,1639,BRA,LC,Porto das Barcas,Wind,20.0,-2.8207,-41.7418
1640,1640,BRA,LC,Porto das Pedras,Hydro,28.03,-19.4736,-52.5397
1641,1641,BRA,LC,Porto das Águas,Biomass,160.0,-18.4581,-52.5995
1642,1642,BRA,LC,Porto do Delta,Wind,30.8,-2.8463,-41.6907
1643,1643,BRA,LC,Potirendaba (Antiga Cerradinho Potirendaba),Biomass,40.2,-21.0999,-49.3177
1644,1644,BRA,LC,Poxoréo (José Fragelli),Hydro,1.2,-15.8356,-54.4083
1645,1645,BRA,LC,Poço Fundo,Hydro,9.16,-21.7906,-46.1244
1646,1646,BRA,LC,Praia Formosa,Wind,105.0,-2.9051,-41.0392
1647,1647,BRA,LC,Praia do Morgado,Wind,28.8,-2.8151,-40.2349
1648,1648,BRA,LC,Prata,Hydro,3.0,-26.7625,-53.6656
1649,1649,BRA,LC,Pratudão,Hydro,1.76,-13.9972,-45.403
1650,1650,BRA,LC,Presidente,Wind,4.8,-6.5747,-34.976
1651,1651,BRA,LC,Presidente Goulart,Hydro,8.0,-13.3336,-44.6328
1652,1652,BRA,LC,Primavera,Hydro,8.120000000000001,-15.3819,-54.4197
1653,1653,BRA,LC,Primavera,Hydro,24.743,-11.9044,-61.2353
1654,1654,BRA,LC,Primavera do Leste,Biomass,8.0,-15.0948,-54.2107
1655,1655,BRA,LC,Promissão (Mário Lopes Leão),Hydro,264.0,-21.2961,-49.7831
1656,1656,BRA,LC,Pumaty,Biomass,8.040000000000001,-8.5579,-35.535
